[{"id":"w950023771","name":"ISPPro.al","lon":19.56124,"lat":42.12137,"country":"Albania","stype":"Data Center"},{"id":"n7034711942","name":"Centro de Datos Modular REFSA Telecomunicaciones","lon":-58.20708,"lat":-26.20585,"country":"Argentina","stype":"Data Center"},{"id":"n7034737759","name":"Centro de Datos UPSTI","lon":-58.16459,"lat":-26.18286,"country":"Argentina","stype":"Data Center"},{"id":"w867314871","name":"Claro","lon":-64.51964,"lat":-30.86675,"country":"Argentina","stype":"Data Center"},{"id":"n13396023097","name":"Data Center EMPATEL Santa Rosa","lon":-64.27016,"lat":-36.6263,"country":"Argentina","operator":"Empresa Pampeana de Telecomunicaciones S.A.P.E.M.","stype":"Data Center"},{"id":"w224820071","name":"Datacenter Claro","lon":-58.44501,"lat":-34.57392,"country":"Argentina","operator":"Claro Argentina","stype":"Data Center","note":"Ciudad Autónoma de Buenos Aires"},{"id":"w263818700","name":"Datacenter Telecom","lon":-58.68196,"lat":-34.46734,"country":"Argentina","operator":"TELECOM ARGENTINA S.A.","stype":"Data Center","note":"Ricardo Rojas"},{"id":"n8254306230","name":"Datacenter UNaM","lon":-55.8881,"lat":-27.43464,"country":"Argentina","stype":"Data Center"},{"id":"w1471853439","name":"Edificio de Telecomunicaciones","lon":-64.42708,"lat":-31.414,"country":"Argentina","stype":"Data Center"},{"id":"w1472876782","name":"Estación de amarre cable submarino de fibra óptica","lon":-56.71015,"lat":-36.48727,"country":"Argentina","operator":"Cirion Technologies","stype":"Data Center"},{"id":"w1473492475","name":"Estación de Amarre Las Toninas - Telecom","lon":-56.69918,"lat":-36.48609,"country":"Argentina","operator":"Telecom","stype":"Data Center"},{"id":"w1293731091","name":"G2K Argentina SA","lon":-60.22239,"lat":-33.32837,"country":"Argentina","stype":"Data Center","note":"San Nicolás de los Arroyos"},{"id":"w1091444209","name":"Ingresos Club Axion","lon":-58.94984,"lat":-34.1666,"country":"Argentina","stype":"Data Center"},{"id":"w1472876777","name":"KM 0 Silica Networks AVC","lon":-56.70885,"lat":-36.48638,"country":"Argentina","stype":"Data Center"},{"id":"w487510946","name":"Level3 Mendoza","lon":-68.81,"lat":-32.9298,"country":"Argentina","operator":"Lumen Technologies","stype":"Data Center","note":"Godoy Cruz"},{"id":"n11381773211","name":"LF Services","lon":-64.48288,"lat":-31.10578,"country":"Argentina","stype":"Data Center"},{"id":"n9571035654","name":"Modernización","lon":-65.76311,"lat":-28.45905,"country":"Argentina","stype":"Data Center"},{"id":"n7034747705","name":"Nodo FO - RED CAPRICORNIO FORMOSA","lon":-58.20713,"lat":-26.20574,"country":"Argentina","stype":"Data Center"},{"id":"n7034747256","name":"Nodo FO REFSA Tel  - EL COLORADO","lon":-59.37083,"lat":-26.30845,"country":"Argentina","operator":"REFSA","stype":"Data Center"},{"id":"n7034744730","name":"Nodo FO REFSA Tel  - MANSILLA","lon":-58.63073,"lat":-26.65936,"country":"Argentina","operator":"REFSA","stype":"Data Center"},{"id":"n6519075547","name":"Nodo FO REFSA Tel  - VILLA 213","lon":-59.36324,"lat":-26.18409,"country":"Argentina","operator":"REFSA","stype":"Data Center"},{"id":"n7034753291","name":"Nodo FO REFSA Tel  - VILLA ESCOLAR","lon":-58.67067,"lat":-26.62145,"country":"Argentina","operator":"REFSA","stype":"Data Center"},{"id":"n7034742245","name":"Nodo FO REFSA Tel  - VILLAFAÑE","lon":-59.07896,"lat":-26.20375,"country":"Argentina","operator":"REFSA","stype":"Data Center"},{"id":"n7034745400","name":"Nodo FO REFSA Tel - HERRADURA","lon":-58.31151,"lat":-26.48866,"country":"Argentina","operator":"REFSA","stype":"Data Center"},{"id":"n7034694131","name":"Nodo FO REFSA Tel - IRIGOYEN","lon":-58.83347,"lat":-26.17532,"country":"Argentina","operator":"REFSA","stype":"Data Center"},{"id":"n7034746627","name":"Nodo FO REFSA Tel - LAISHI","lon":-58.63025,"lat":-26.24003,"country":"Argentina","operator":"REFSA TELECOMUNICACIONES","stype":"Data Center"},{"id":"n7034739991","name":"Nodo FO REFSA Tel - TATANE","lon":-58.34451,"lat":-26.3937,"country":"Argentina","stype":"Data Center"},{"id":"n9577661001","name":"Pabellon 4","lon":-65.76588,"lat":-28.45956,"country":"Argentina","stype":"Data Center"},{"id":"n13719824868","name":"PhoenixGroup","lon":-58.4253,"lat":-34.78903,"country":"Argentina","operator":"Servicio Tecnico Electronico","stype":"Data Center","note":"Llavallol"},{"id":"n9578033625","name":"Rack Modernización","lon":-65.75663,"lat":-28.44748,"country":"Argentina","stype":"Data Center"},{"id":"n7034714852","name":"Shelter ARSAT FO","lon":-58.20704,"lat":-26.20597,"country":"Argentina","stype":"Data Center"},{"id":"w833840511","name":"Shelter Modernización","lon":-65.76592,"lat":-28.45788,"country":"Argentina","stype":"Data Center"},{"id":"w1227478328","name":"Telecom","lon":-64.48712,"lat":-31.09453,"country":"Argentina","stype":"Data Center"},{"id":"w1174694621","name":"TeraSoft","lon":-64.5027,"lat":-30.99809,"country":"Argentina","stype":"Data Center"},{"id":"w1470640263","name":"Ovio","lon":44.6148,"lat":40.26963,"country":"Armenia","operator":"GNC-Alfa","stype":"Data Center","note":"Աբովյան"},{"id":"n7427576130","name":"REG.AM","lon":44.51716,"lat":40.17565,"country":"Armenia","operator":"GlobalAr LLC","stype":"Data Center"},{"id":"n12517655908","name":"42 -24 Cambridge","lon":147.46524,"lat":-42.82987,"country":"Australia","operator":"42 - 24 Pty Ltd","stype":"Data Center"},{"id":"w1133447252","name":"42-24 Derwent Park","lon":147.29712,"lat":-42.83924,"country":"Australia","operator":"42 - 24 Pty Ltd","stype":"Data Center"},{"id":"w368744656","name":"AAPT Data Centre","lon":145.00763,"lat":-37.82021,"country":"Australia","stype":"Data Center"},{"id":"w1002893123","name":"AirTrunk Sydney North","lon":151.14483,"lat":-33.8077,"country":"Australia","operator":"AirTrunk","stype":"Data Center"},{"id":"w698059695","name":"AirTrunk Sydney West","lon":150.8819,"lat":-33.79948,"country":"Australia","operator":"Airtrunk","stype":"Data Center"},{"id":"w1431195822","name":"Amazon Web Services","lon":144.75567,"lat":-37.83802,"country":"Australia","operator":"Amazon Web Services","stype":"Data Center"},{"id":"w967421070","name":"ANZ Data Centre","lon":144.87719,"lat":-37.68812,"country":"Australia","operator":"ANZ","stype":"Data Center"},{"id":"w697885424","name":"Australian Liquidity Centre","lon":151.18635,"lat":-33.81998,"country":"Australia","operator":"Australian Securities Exchange","stype":"Data Center"},{"id":"w697885219","name":"AWS Asia Pacific (Sydney) Region Data Centre","lon":150.76812,"lat":-34.03716,"country":"Australia","operator":"Amazon Web Services","stype":"Data Center"},{"id":"w977464240","name":"AWS Asia Pacific (Sydney) Region Data Centre","lon":150.86948,"lat":-33.79474,"country":"Australia","operator":"Amazon Web Services","stype":"Data Center"},{"id":"w1298277671","name":"AWS Asia Pacific (Sydney) Region Data Centre","lon":150.83904,"lat":-33.80951,"country":"Australia","operator":"Amazon Web Services","stype":"Data Center"},{"id":"w1298979734","name":"AWS Asia Pacific (Sydney) Region Data Centre","lon":150.87028,"lat":-33.7952,"country":"Australia","operator":"Amazon Web Services","stype":"Data Center"},{"id":"w1298979786","name":"AWS Asia Pacific (Sydney) Region Data Centre","lon":151.12602,"lat":-33.77992,"country":"Australia","operator":"Amazon Web Services","stype":"Data Center"},{"id":"w77626243","name":"Canberra 1","lon":149.09624,"lat":-35.24532,"country":"Australia","operator":"NextDC","stype":"Data Center"},{"id":"w803869403","name":"CDC Eastern Creek Campus EC1","lon":150.83947,"lat":-33.818,"country":"Australia","operator":"Canberra Data Centres","stype":"Data Center"},{"id":"w977470049","name":"CDC Eastern Creek Campus EC2","lon":150.83997,"lat":-33.81832,"country":"Australia","operator":"Canberra Data Centres","stype":"Data Center"},{"id":"w966897260","name":"CDC Eastern Creek Campus EC3","lon":150.8383,"lat":-33.81775,"country":"Australia","operator":"Canberra Data Centres","stype":"Data Center"},{"id":"w977470047","name":"CDC Eastern Creek Campus EC4","lon":150.83759,"lat":-33.81868,"country":"Australia","operator":"Canberra Data Centres","stype":"Data Center"},{"id":"w977470046","name":"CDC Eastern Creek Campus EC5","lon":150.83671,"lat":-33.81829,"country":"Australia","operator":"CDC","stype":"Data Center"},{"id":"w1479628967","name":"CDC Eastern Creek Campus EC6","lon":150.83751,"lat":-33.81733,"country":"Australia","operator":"CDC","stype":"Data Center"},{"id":"w1010500714","name":"CDC Hume Datacentre 1","lon":149.1676,"lat":-35.38866,"country":"Australia","operator":"CDC","stype":"Data Center"},{"id":"w59807473","name":"CDC Hume Datacentre 2","lon":149.16787,"lat":-35.38902,"country":"Australia","operator":"CDC","stype":"Data Center"},{"id":"w1010500713","name":"CDC Hume Datacentre 3","lon":149.16845,"lat":-35.38931,"country":"Australia","operator":"CDC","stype":"Data Center"},{"id":"w263915226","name":"CDC Laverton","lon":144.77539,"lat":-37.84157,"country":"Australia","operator":"CDC","stype":"Data Center"},{"id":"w270554690","name":"Datacom Data Centre","lon":144.96148,"lat":-37.82435,"country":"Australia","stype":"Data Center"},{"id":"w544451114","name":"DigiCo ADL1","lon":138.64402,"lat":-34.74041,"country":"Australia","operator":"DigiCo","stype":"Data Center"},{"id":"w812989671","name":"DigiCo ADL2","lon":138.60834,"lat":-34.96848,"country":"Australia","operator":"DigiCo","stype":"Data Center"},{"id":"r19402810","name":"DigiCo BNE1","lon":153.09146,"lat":-27.41583,"country":"Australia","operator":"DigiCo","stype":"Data Center"},{"id":"r19402811","name":"DigiCo BNE2","lon":153.09217,"lat":-27.4166,"country":"Australia","operator":"DigiCo","stype":"Data Center"},{"id":"w100109132","name":"DigiCo SYD1","lon":151.1977,"lat":-33.8756,"country":"Australia","operator":"DigiCo","stype":"Data Center"},{"id":"w1262899342","name":"DigiCo TSV1","lon":146.77155,"lat":-19.27136,"country":"Australia","operator":"DigiCo","stype":"Data Center"},{"id":"w981505633","name":"Digital Erskine Park 1","lon":150.79585,"lat":-33.81624,"country":"Australia","operator":"Digital Realty","stype":"Data Center"},{"id":"w981505634","name":"Digital Erskine Park 2","lon":150.79544,"lat":-33.81723,"country":"Australia","operator":"Digital Realty","stype":"Data Center"},{"id":"w485850331","name":"Digital Realty","lon":144.7793,"lat":-37.78186,"country":"Australia","operator":"Digital Realty","stype":"Data Center"},{"id":"w204158666","name":"DXC Technology","lon":145.16523,"lat":-37.85736,"country":"Australia","stype":"Data Center"},{"id":"w287001182","name":"DXN Data Centre","lon":151.07365,"lat":-33.84521,"country":"Australia","stype":"Data Center"},{"id":"w1060498370","name":"Equinix CA1","lon":149.13472,"lat":-35.20797,"country":"Australia","operator":"Equinix","stype":"Data Center"},{"id":"w474805151","name":"Equinix International Business Exchange SY1 Data Center","lon":151.18856,"lat":-33.92079,"country":"Australia","operator":"Equinix","stype":"Data Center"},{"id":"w443593674","name":"Equinix International Business Exchange SY2 Data Center","lon":151.1881,"lat":-33.92163,"country":"Australia","operator":"Equinix","stype":"Data Center"},{"id":"w474805152","name":"Equinix International Business Exchange SY3 Data Center","lon":151.19277,"lat":-33.91167,"country":"Australia","operator":"Equinix","stype":"Data Center"},{"id":"w507122061","name":"Equinix ME1","lon":144.91551,"lat":-37.82321,"country":"Australia","operator":"Equinix","stype":"Data Center"},{"id":"w1206579186","name":"Equinix ME2","lon":144.91529,"lat":-37.8222,"country":"Australia","operator":"Equinix","stype":"Data Center"},{"id":"w995740426","name":"Equinix ME4","lon":144.78636,"lat":-37.78848,"country":"Australia","operator":"Equinix","stype":"Data Center"},{"id":"w1299071698","name":"Equinix ME5","lon":144.95336,"lat":-37.80798,"country":"Australia","operator":"Equinix","stype":"Data Center"},{"id":"w986296358","name":"Equinix PE2","lon":115.79802,"lat":-31.95594,"country":"Australia","operator":"Equinix","stype":"Data Center"},{"id":"n9499643370","name":"Equinix SY4","lon":151.18902,"lat":-33.91822,"country":"Australia","operator":"Equinix","stype":"Data Center"},{"id":"n10299599312","name":"Equinix SY5","lon":151.18988,"lat":-33.91931,"country":"Australia","operator":"Equinix","stype":"Data Center"},{"id":"w1467185863","name":"Equinix SY6","lon":151.05329,"lat":-33.83666,"country":"Australia","operator":"Equinix","stype":"Data Center"},{"id":"w1441543300","name":"Equinix SY7 - Sydney","lon":150.85693,"lat":-34.46352,"country":"Australia","operator":"Equinix","stype":"Data Center"},{"id":"w727001317","name":"Equinix SY9x","lon":151.03471,"lat":-33.82355,"country":"Australia","operator":"Equinix","stype":"Data Center"},{"id":"w429540795","name":"Firmus LST01","lon":147.17654,"lat":-41.44082,"country":"Australia","operator":"Firmus","stype":"Data Center"},{"id":"w474646366","name":"Fujitsu Data Centre","lon":145.18552,"lat":-37.94719,"country":"Australia","stype":"Data Center"},{"id":"w238813286","name":"Fujitsu Homebush Data Centre","lon":151.07165,"lat":-33.84981,"country":"Australia","stype":"Data Center"},{"id":"w23716846","name":"Fujitsu North Ryde Data Centre","lon":151.13189,"lat":-33.78671,"country":"Australia","stype":"Data Center"},{"id":"w474805155","name":"Fujitsu Western Sydney Data Centre","lon":150.92378,"lat":-33.82185,"country":"Australia","operator":"Fujitsu","stype":"Data Center"},{"id":"w971044866","name":"Fyshwick 1","lon":149.18223,"lat":-35.33754,"country":"Australia","operator":"Canberra Data Centres","stype":"Data Center"},{"id":"w971044867","name":"Fyshwick 2","lon":149.18311,"lat":-35.33803,"country":"Australia","operator":"Canberra Data Centres","stype":"Data Center"},{"id":"w1010496550","name":"Hume 4","lon":149.16379,"lat":-35.39593,"country":"Australia","operator":"Canberra Data Centres","stype":"Data Center"},{"id":"w1060498365","name":"Hume 5","lon":149.16223,"lat":-35.39536,"country":"Australia","operator":"Canberra Data Centres","stype":"Data Center"},{"id":"w1298979787","name":"Intellicentre 2","lon":151.12767,"lat":-33.78073,"country":"Australia","operator":"Macquarie Data Centres","stype":"Data Center"},{"id":"w1298979789","name":"Intellicentre 3 East","lon":151.12724,"lat":-33.78127,"country":"Australia","operator":"Macquarie Data Centres","stype":"Data Center"},{"id":"w293589187","name":"Intellicentre 4 Bunker","lon":149.20211,"lat":-35.30105,"country":"Australia","operator":"Macquarie Telecom Group","stype":"Data Center"},{"id":"w1060498364","name":"Intellicentre 5 Bunker","lon":149.20151,"lat":-35.30146,"country":"Australia","operator":"Macquarie Telecom Group","stype":"Data Center"},{"id":"w132394561","name":"Interactive 2 Data Centre","lon":144.93551,"lat":-37.83246,"country":"Australia","operator":"Interactive","stype":"Data Center"},{"id":"w132394564","name":"Interactive 2 Data Centre","lon":144.93478,"lat":-37.83261,"country":"Australia","operator":"Interactive","stype":"Data Center"},{"id":"n4686764434","name":"Interactive Data Centre","lon":151.19249,"lat":-33.81602,"country":"Australia","operator":"Interactive","stype":"Data Center"},{"id":"w59807454","name":"Iron Mountain","lon":149.1701,"lat":-35.38763,"country":"Australia","operator":"Iron Mountain","stype":"Data Center"},{"id":"w1441547266","name":"LEDC - ABX1 - Albury","lon":146.95522,"lat":-36.07126,"country":"Australia","operator":"Leading Edge Data Centres","stype":"Data Center"},{"id":"w1441548723","name":"LEDC - CFS1 - Coffs Harbour","lon":153.11703,"lat":-30.3144,"country":"Australia","operator":"Leading Edge Data Centres","stype":"Data Center"},{"id":"w1441548719","name":"LEDC - DBO1 - Dubbo","lon":148.58149,"lat":-32.24107,"country":"Australia","operator":"Leading Edge Data Centres","stype":"Data Center"},{"id":"w1441548716","name":"LEDC - NTL1 - Newcastle","lon":151.7306,"lat":-32.88323,"country":"Australia","operator":"Leading Edge Data Centres","stype":"Data Center"},{"id":"w1248945224","name":"LEDC - TMW1 - Tamworth","lon":150.9216,"lat":-31.07421,"country":"Australia","operator":"Leading Edge Data Centre","stype":"Data Center"},{"id":"w1150357328","name":"LEDC - WGA1 - Wagga Wagga","lon":147.34891,"lat":-35.1261,"country":"Australia","operator":"Leading Edge Data Centres","stype":"Data Center"},{"id":"w474646386","name":"Micron21 Data Centre","lon":145.31398,"lat":-37.82211,"country":"Australia","stype":"Data Center"},{"id":"w1299071579","name":"Microsoft MEL04","lon":144.85884,"lat":-37.82245,"country":"Australia","operator":"Microsoft","stype":"Data Center"},{"id":"w1431195848","name":"Microsoft MEL05","lon":144.85743,"lat":-37.82134,"country":"Australia","operator":"Microsoft","stype":"Data Center"},{"id":"w1341415586","name":"Microsoft MEL07","lon":144.87492,"lat":-37.68555,"country":"Australia","operator":"Microsoft","stype":"Data Center"},{"id":"w1293830519","name":"Microsoft MEL11","lon":144.72247,"lat":-37.80932,"country":"Australia","operator":"Microsoft","stype":"Data Center"},{"id":"w1298277645","name":"Microsoft SYD05 Data Centre","lon":150.77295,"lat":-33.83609,"country":"Australia","operator":"Microsoft","stype":"Data Center"},{"id":"w1479632522","name":"Microsoft SYD06 Data Centre","lon":150.77557,"lat":-33.83628,"country":"Australia","operator":"Microsoft","stype":"Data Center"},{"id":"n11057872687","name":"NextDC","lon":153.03338,"lat":-27.454,"country":"Australia","stype":"Data Center"},{"id":"w394251157","name":"NEXTDC - S1 Sydney","lon":151.13151,"lat":-33.78518,"country":"Australia","operator":"NextDC","stype":"Data Center"},{"id":"w750706229","name":"NEXTDC - S2 Sydney","lon":151.12528,"lat":-33.78517,"country":"Australia","operator":"NextDC","stype":"Data Center"},{"id":"w1225879499","name":"NEXTDC - S3 Sidney","lon":151.18457,"lat":-33.81911,"country":"Australia","operator":"NextDC","stype":"Data Center"},{"id":"w889434872","name":"NEXTDC - S6 Sidney","lon":151.18601,"lat":-33.81949,"country":"Australia","operator":"NextDC","stype":"Data Center"},{"id":"w117986093","name":"NextDC A1","lon":138.60786,"lat":-34.92569,"country":"Australia","operator":"NextDC","stype":"Data Center"},{"id":"w333179191","name":"NextDC M1 Melbourne Data Centre","lon":144.93225,"lat":-37.82264,"country":"Australia","operator":"NextDC","stype":"Data Center"},{"id":"w1303950840","name":"NEXTDC M3 Melbourne Data Centre","lon":144.86562,"lat":-37.80478,"country":"Australia","operator":"NextDC","stype":"Data Center"},{"id":"w812825291","name":"NextDC P2 Perth Data Centre","lon":115.86823,"lat":-31.95017,"country":"Australia","operator":"NextDC","stype":"Data Center"},{"id":"w474805163","name":"Optus Data Centre","lon":151.19878,"lat":-33.8787,"country":"Australia","stype":"Data Center"},{"id":"w245183722","name":"Pier Data Centre","lon":115.91612,"lat":-32.05945,"country":"Australia","operator":"DC Alliance","stype":"Data Center"},{"id":"w474646358","name":"Powertel Data Centre","lon":144.96155,"lat":-37.81884,"country":"Australia","stype":"Data Center"},{"id":"w474805156","name":"Powertel Data Centre","lon":151.20446,"lat":-33.86496,"country":"Australia","stype":"Data Center"},{"id":"w908492330","name":"SC1 Sunshine Coast Data Centre","lon":153.09285,"lat":-26.6597,"country":"Australia","operator":"NextDC","stype":"Data Center"},{"id":"w474646359","name":"Securiton Data Centre","lon":144.95777,"lat":-37.81888,"country":"Australia","stype":"Data Center"},{"id":"n9354608740","name":"Simtronic","lon":150.69449,"lat":-33.7528,"country":"Australia","stype":"Data Center"},{"id":"w474805150","name":"Southern Cross Cable Network Landing Station","lon":151.18521,"lat":-33.91859,"country":"Australia","stype":"Data Center"},{"id":"w474805165","name":"Southern Cross Cable Network Landing Station","lon":151.27373,"lat":-33.76366,"country":"Australia","operator":"Southern Cross Cable Network","stype":"Data Center"},{"id":"w1441542602","name":"Southern Highlands Data Campus","lon":150.36974,"lat":-34.51542,"country":"Australia","operator":"Cloud Carrier","stype":"Data Center"},{"id":"w1431195819","name":"Stack Infrastructure MEL01A","lon":144.74764,"lat":-37.81996,"country":"Australia","operator":"Stack Infrastructure","stype":"Data Center"},{"id":"n13155496975","name":"Stack Infrastructure MEL01B","lon":144.74748,"lat":-37.82047,"country":"Australia","operator":"Stack Infrastructure","stype":"Data Center"},{"id":"w977470051","name":"Sydney 01","lon":150.88651,"lat":-33.80499,"country":"Australia","operator":"DCI Data Centers","stype":"Data Center"},{"id":"n688791288","name":"Telstra","lon":115.80141,"lat":-32.06536,"country":"Australia","operator":"Telstra","stype":"Data Center"},{"id":"w474646387","name":"Telstra Clayton Data Centre","lon":145.13194,"lat":-37.92076,"country":"Australia","operator":"Telstra","stype":"Data Center"},{"id":"w891768315","name":"Telstra Data Centre","lon":151.1913,"lat":-33.81878,"country":"Australia","operator":"Telstra","stype":"Data Center"},{"id":"w1443131904","name":"Torquay Cable Landing Station","lon":144.31287,"lat":-38.32744,"country":"Australia","operator":"SUBCO Pty Ltd","stype":"Data Center"},{"id":"w474646360","name":"TPG Data Centre","lon":144.94338,"lat":-37.80112,"country":"Australia","stype":"Data Center"},{"id":"w474805164","name":"TPG Data Centre","lon":151.20364,"lat":-33.86369,"country":"Australia","stype":"Data Center"},{"id":"w50637197","name":"TransACT Telehouse","lon":149.13447,"lat":-35.2517,"country":"Australia","operator":"TransACT","stype":"Data Center"},{"id":"w173161522","name":"Verizon Data Centre","lon":151.19464,"lat":-33.87234,"country":"Australia","stype":"Data Center"},{"id":"n4686763486","name":"Vocus Data Centre","lon":151.19316,"lat":-33.915,"country":"Australia","stype":"Data Center"},{"id":"w474646361","name":"Vocus DC-MEL04 Mitcham Data Centre","lon":145.18773,"lat":-37.82143,"country":"Australia","stype":"Data Center"},{"id":"w1057170798","name":"Vocus Sydney SYD02","lon":150.96986,"lat":-33.7337,"country":"Australia","operator":"Vocus","stype":"Data Center"},{"id":"w714122240","name":"A","lon":16.34146,"lat":48.15999,"country":"Austria","stype":"Data Center"},{"id":"w714122239","name":"B","lon":16.34209,"lat":48.15924,"country":"Austria","stype":"Data Center"},{"id":"w1251362833","name":"C","lon":16.34165,"lat":48.15861,"country":"Austria","stype":"Data Center"},{"id":"w868570931","name":"Conova Communications","lon":13.0828,"lat":47.70622,"country":"Austria","stype":"Data Center","note":"Hallein"},{"id":"w31990236","name":"Digital Realty VIE1 & VIE2","lon":16.41039,"lat":48.26894,"country":"Austria","operator":"Digital Realty","stype":"Data Center","note":"Wien"},{"id":"n6578896177","name":"earthDATAsafe","lon":15.33817,"lat":47.44914,"country":"Austria","operator":"Kapsch BusinessCom AG","stype":"Data Center","note":"Kapfenberg"},{"id":"n12596690617","name":"IT- und Data Center Linz","lon":14.30832,"lat":48.28215,"country":"Austria","operator":"LINZ NETZ GmbH","stype":"Data Center"},{"id":"n13092390748","name":"IT- und Data Center Linz","lon":14.3,"lat":48.3242,"country":"Austria","stype":"Data Center"},{"id":"w362597613","name":"IT- und Data Center Urfahr","lon":14.30001,"lat":48.32421,"country":"Austria","operator":"LINZ STROM GAS WÄRME GmbH","stype":"Data Center","note":"Linz"},{"id":"w1289342848","name":"Microsoft","lon":16.46169,"lat":48.14032,"country":"Austria","operator":"Microsoft","stype":"Data Center","note":"Schwechat"},{"id":"n13092405864","name":"RAITEC","lon":14.30724,"lat":48.29847,"country":"Austria","stype":"Data Center"},{"id":"w708069523","name":"Rechenzentrum Ostermiething","lon":12.83725,"lat":48.03226,"country":"Austria","operator":"Stack IT","stype":"Data Center","note":"Ostermiething"},{"id":"w1100732128","name":"T-Mobile Rechenzentrum Graz","lon":15.42498,"lat":47.04053,"country":"Austria","operator":"T-Mobile / Magenta","stype":"Data Center","note":"Graz"},{"id":"w74662577","name":"Telekom-Tower","lon":15.43034,"lat":47.06625,"country":"Austria","operator":"A1 / Telekom Austria","stype":"Data Center","note":"Graz"},{"id":"n12087705567","name":"İnformasiya mərkəzi","lon":46.75143,"lat":39.81564,"country":"Azerbaijan","stype":"Data Center"},{"id":"w835661484","name":"İT kursu","lon":46.76726,"lat":39.82527,"country":"Azerbaijan","stype":"Data Center"},{"id":"w163948431","name":"Pasha Technology Datacenter","lon":49.83362,"lat":40.40952,"country":"Azerbaijan","operator":"Pasha Technology","stype":"Data Center"},{"id":"w1330111640","name":"Zone 41","lon":49.88671,"lat":40.37709,"country":"Azerbaijan","stype":"Data Center"},{"id":"w956069872","name":"Amazon Web Services","lon":50.47403,"lat":26.15452,"country":"Bahrain","operator":"Amazon Web Services","stype":"Data Center"},{"id":"w1359931661","name":"Amazon Web Services","lon":50.50377,"lat":26.05042,"country":"Bahrain","operator":"Amazon Web Services","stype":"Data Center"},{"id":"w1492345589","name":"Amazon Web Services","lon":50.6051,"lat":26.06938,"country":"Bahrain","operator":"Amazon Web Services","stype":"Data Center"},{"id":"w956069435","name":"Batelco Hamala Data Center","lon":50.47474,"lat":26.15646,"country":"Bahrain","operator":"Batelco","stype":"Data Center"},{"id":"w992650497","name":"বাংলাদেশ টেকনোসিটি লিমিটেড","lon":90.23591,"lat":24.06528,"country":"Bangladesh","stype":"Data Center"},{"id":"w829254978","name":"বাংলাদেশ ডাটা সেন্টার কোম্পানি লিমিটেড(বিডিসিসিএল)","lon":90.22945,"lat":24.07145,"country":"Bangladesh","stype":"Data Center"},{"id":"w1448042316","name":"সামিট কমিউনিকেশনস লিমিটেড","lon":90.23203,"lat":24.064,"country":"Bangladesh","stype":"Data Center"},{"id":"w464277377","name":"Дата-цэнтр А1","lon":27.73632,"lat":53.91656,"country":"Belarus","operator":"ТАА «А1 IКТ сэрвiсы»","stype":"Data Center","note":"Мінск"},{"id":"w698024175","name":"РЦАД beCloud","lon":27.78456,"lat":53.9621,"country":"Belarus","operator":"ТАА Беларускія воблачныя тэхналогіі","stype":"Data Center","note":"Калодзішчы"},{"id":"w85508743","name":"Alphacloud Datacenter","lon":4.49685,"lat":51.01816,"country":"Belgium","operator":"Infrabel NV","stype":"Data Center"},{"id":"w29417840","name":"Brussels DC","lon":4.45414,"lat":50.88142,"country":"Belgium","operator":"Datacenter United","stype":"Data Center"},{"id":"w30450893","name":"COLT","lon":4.5045,"lat":50.87195,"country":"Belgium","stype":"Data Center","note":"Zaventem"},{"id":"w769969773","name":"Colt Evere","lon":4.41172,"lat":50.85761,"country":"Belgium","operator":"Colt Technology Services nv","stype":"Data Center"},{"id":"n6215733985","name":"Colt Telecom","lon":4.45004,"lat":50.88462,"country":"Belgium","stype":"Data Center"},{"id":"w1341803989","name":"Datacenter Base-Telenet","lon":4.37844,"lat":51.14363,"country":"Belgium","operator":"Telenet Group NV","stype":"Data Center"},{"id":"w389875923","name":"Datacenter Burcht","lon":4.347,"lat":51.21108,"country":"Belgium","operator":"Datacenter United / DCstar nv","stype":"Data Center"},{"id":"w368995283","name":"Datacenter Gent","lon":3.68339,"lat":51.02709,"country":"Belgium","operator":"Datacenter United","stype":"Data Center"},{"id":"w139586790","name":"Datacenter Oostkamp","lon":3.23618,"lat":51.16666,"country":"Belgium","operator":"Data Center United","stype":"Data Center","note":"Oostkamp"},{"id":"n13614915734","name":"DC Antwerp","lon":4.41447,"lat":51.26315,"country":"Belgium","operator":"Datacenter United","stype":"Data Center"},{"id":"n13320005875","name":"DC Evere","lon":4.39396,"lat":50.8798,"country":"Belgium","operator":"Datacenter United","stype":"Data Center"},{"id":"n12637347290","name":"DC Flanders","lon":4.39939,"lat":51.26408,"country":"Belgium","operator":"Datacenter United","stype":"Data Center"},{"id":"w746200227","name":"DC Hasselt 1","lon":5.30484,"lat":50.9318,"country":"Belgium","operator":"Datacenter United","stype":"Data Center"},{"id":"w822844088","name":"DC Hasselt 2","lon":5.36364,"lat":50.93831,"country":"Belgium","operator":"Datacenter United","stype":"Data Center"},{"id":"w35130174","name":"DC Machelen","lon":4.42306,"lat":50.91163,"country":"Belgium","operator":"Datacenter United","stype":"Data Center"},{"id":"n12633325927","name":"DC Mechelen","lon":4.48043,"lat":51.01696,"country":"Belgium","operator":"Datacenter United","stype":"Data Center"},{"id":"w148845282","name":"DC Moeskroen","lon":3.22876,"lat":50.75218,"country":"Belgium","operator":"Datacenter United","stype":"Data Center"},{"id":"w29448766","name":"Digital Realty Brussels BRU1","lon":4.47611,"lat":50.8706,"country":"Belgium","operator":"Digital Realty","stype":"Data Center","note":"Zaventem"},{"id":"n12214044390","name":"Digital Realty Brussels BRU3 Datacenter","lon":4.50231,"lat":50.87352,"country":"Belgium","operator":"Digital Realty","stype":"Data Center"},{"id":"n12214044389","name":"Digital Realty Brussels BRU4 Datacenter","lon":4.50321,"lat":50.87361,"country":"Belgium","operator":"Digital Realty","stype":"Data Center"},{"id":"n10607054827","name":"FoxNetwork","lon":4.25041,"lat":50.7068,"country":"Belgium","operator":"Louis Beke","stype":"Data Center"},{"id":"w106054206","name":"Google Data Center","lon":3.86446,"lat":50.46767,"country":"Belgium","operator":"Google","stype":"Data Center"},{"id":"w143759902","name":"Google Data Center GBL1","lon":3.86539,"lat":50.46921,"country":"Belgium","operator":"Google","stype":"Data Center"},{"id":"n12458675570","name":"Interoute","lon":3.76789,"lat":50.98699,"country":"Belgium","stype":"Data Center"},{"id":"n12637347348","name":"LCL Antwerp","lon":4.40309,"lat":51.26422,"country":"Belgium","operator":"LCL Belgium nv","stype":"Data Center"},{"id":"n12088526370","name":"LCL Belgium","lon":4.45549,"lat":50.88741,"country":"Belgium","stype":"Data Center"},{"id":"w741838106","name":"LCL Datacenter (DataCloud)","lon":4.03756,"lat":50.91346,"country":"Belgium","stype":"Data Center","note":"Erembodegem"},{"id":"r8012396","name":"LCL Wallonia One","lon":4.71756,"lat":50.50316,"country":"Belgium","operator":"LCL","stype":"Data Center"},{"id":"n8583885761","name":"Microsoft Data Center","lon":3.61025,"lat":50.52815,"country":"Belgium","operator":"Microsoft","stype":"Data Center"},{"id":"w1364742301","name":"Nexus Datacenter","lon":4.28893,"lat":50.88195,"country":"Belgium","operator":"VUB;UZ Brussel","stype":"Data Center"},{"id":"w150278436","name":"O","lon":4.38349,"lat":50.8148,"country":"Belgium","stype":"Data Center"},{"id":"w146194151","name":"S10","lon":3.71226,"lat":51.02373,"country":"Belgium","stype":"Data Center"},{"id":"w517078437","name":"Telenet servergebouw","lon":4.48541,"lat":51.03605,"country":"Belgium","operator":"Telenet Group NV","stype":"Data Center"},{"id":"w913668923","name":"Wallonie Data Center (WDC)","lon":5.26174,"lat":50.58062,"country":"Belgium","stype":"Data Center"},{"id":"n10182165798","name":"Community Information Center","lon":90.9449,"lat":27.24522,"country":"Bhutan","operator":"Nima Om","stype":"Data Center"},{"id":"n13926884992","name":"Data Center ENTEL","lon":-66.25132,"lat":-17.55574,"country":"Bolivia","operator":"Empresa Nacional de Telecomunicaciones","stype":"Data Center","note":"Santiváñez"},{"id":"w848800759","name":"Edificio Telepuerto","lon":-66.25135,"lat":-17.55571,"country":"Bolivia","stype":"Data Center","note":"Santiváñez"},{"id":"w1064447685","name":"Armazém Cloud","lon":-48.88349,"lat":-26.23582,"country":"Brazil","stype":"Data Center","note":"Joinville"},{"id":"n13618251143","name":"ASAP Telecom - Data Center","lon":-46.69852,"lat":-23.67798,"country":"Brazil","operator":"ASAP Telecom","stype":"Data Center","note":"São Paulo"},{"id":"w1167125352","name":"Ascenty Infraestrutura de Data Centers","lon":-38.61119,"lat":-3.8308,"country":"Brazil","stype":"Data Center"},{"id":"w673758679","name":"Ascenty SP1","lon":-46.77602,"lat":-23.49205,"country":"Brazil","operator":"Digital Realty","stype":"Data Center"},{"id":"w673758677","name":"Ascenty SP2","lon":-46.77722,"lat":-23.49238,"country":"Brazil","operator":"Digital Realty","stype":"Data Center"},{"id":"w1275221458","name":"Ascenty SP3","lon":-46.77649,"lat":-23.49098,"country":"Brazil","operator":"Digital Realty","stype":"Data Center"},{"id":"w1275221478","name":"Ascenty SP4","lon":-46.77526,"lat":-23.48983,"country":"Brazil","operator":"Digital Realty","stype":"Data Center"},{"id":"n9958355135","name":"CDL","lon":-56.62543,"lat":-16.26469,"country":"Brazil","stype":"Data Center"},{"id":"w846779776","name":"Central de internet - Claro/NET","lon":-48.02853,"lat":-23.56957,"country":"Brazil","operator":"Claro S/A","stype":"Data Center"},{"id":"w856975112","name":"Central telefônica da Vivo","lon":-48.05251,"lat":-23.59195,"country":"Brazil","operator":"VIVO SA","stype":"Data Center","note":"Itapetininga"},{"id":"w820790000","name":"Central telefônica de Itapetininga","lon":-48.03013,"lat":-23.5785,"country":"Brazil","operator":"Vivo","stype":"Data Center"},{"id":"w1026558508","name":"Centro de Dirigentes Lojistas de Campos dos Goytacazes - CDL","lon":-41.31759,"lat":-21.75834,"country":"Brazil","operator":"CDL","stype":"Data Center"},{"id":"w304507029","name":"Centro de Informática (CPD)","lon":-47.86577,"lat":-15.77275,"country":"Brazil","stype":"Data Center"},{"id":"w695745461","name":"Centro de Processamento de Dados - UEFS","lon":-38.97299,"lat":-12.2025,"country":"Brazil","operator":"Universidade Estadual de Feira de Santana","stype":"Data Center"},{"id":"w343937843","name":"Centro Tecnológico Caixa","lon":-47.91064,"lat":-15.79165,"country":"Brazil","stype":"Data Center"},{"id":"n2473922003","name":"CGCO","lon":-43.37144,"lat":-21.77629,"country":"Brazil","operator":"UFJF","stype":"Data Center"},{"id":"w1175053016","name":"Condomínio Galpões Comericiais (DATA CENTER)","lon":-47.10613,"lat":-22.77186,"country":"Brazil","operator":"Ubatã Empreendimentos Imobiliários e Lazer LTDA","stype":"Data Center"},{"id":"w1105703906","name":"Data Center (Ministério Público de Minas Gerais)","lon":-43.97863,"lat":-19.92903,"country":"Brazil","stype":"Data Center"},{"id":"w864164408","name":"Datacenter de Mambucaba","lon":-44.54854,"lat":-23.03375,"country":"Brazil","operator":"Eletronuclear","stype":"Data Center"},{"id":"n11175817920","name":"Dinfo (Provedor De Internet)","lon":-38.21812,"lat":-11.30583,"country":"Brazil","stype":"Data Center"},{"id":"w1472333082","name":"Equinix","lon":-46.815,"lat":-23.49674,"country":"Brazil","operator":"Equinix","stype":"Data Center"},{"id":"w1307080783","name":"Equinix Rio RJ2","lon":-43.27322,"lat":-22.87139,"country":"Brazil","operator":"Equinix","stype":"Data Center"},{"id":"n13741708048","name":"Equinix SP4 Terremark","lon":-46.80964,"lat":-23.49372,"country":"Brazil","operator":"Equinix","stype":"Data Center"},{"id":"w1475003347","name":"Equinix SP6","lon":-46.85822,"lat":-23.46236,"country":"Brazil","operator":"Equinix","stype":"Data Center"},{"id":"w1022097165","name":"Fleetnet","lon":-50.89169,"lat":-22.22872,"country":"Brazil","stype":"Data Center","note":"Rancharia"},{"id":"n6566811047","name":"Fundação CEPRO","lon":-42.80238,"lat":-5.08773,"country":"Brazil","stype":"Data Center","note":"Teresina"},{"id":"n11769470105","name":"ISPTEC Telecomunicacoes","lon":-35.87618,"lat":-7.22474,"country":"Brazil","stype":"Data Center","note":"Campina Grande"},{"id":"n2868452750","name":"Laboratório de Programação","lon":-38.97341,"lat":-12.19954,"country":"Brazil","stype":"Data Center"},{"id":"n12754371024","name":"Laboratório MackLeaps","lon":-46.65239,"lat":-23.54767,"country":"Brazil","stype":"Data Center"},{"id":"n11175817921","name":"Net Wireless","lon":-38.21659,"lat":-11.30379,"country":"Brazil","stype":"Data Center"},{"id":"w546415184","name":"NWI Telecom","lon":-47.91051,"lat":-15.79196,"country":"Brazil","stype":"Data Center"},{"id":"w1385101584","name":"Odata","lon":-47.19391,"lat":-22.90174,"country":"Brazil","stype":"Data Center","note":"Hortolândia"},{"id":"w1366376874","name":"ODATA DC RJ01","lon":-43.35738,"lat":-22.79683,"country":"Brazil","operator":"Odata","stype":"Data Center","note":"São João de Meriti"},{"id":"w695690131","name":"ODATA DC SP01","lon":-46.91505,"lat":-23.45502,"country":"Brazil","stype":"Data Center"},{"id":"w717898992","name":"Oi","lon":-48.54699,"lat":-25.54938,"country":"Brazil","stype":"Data Center"},{"id":"w1427547793","name":"Rio AI City","lon":-43.37629,"lat":-22.96606,"country":"Brazil","stype":"Data Center"},{"id":"n13509301320","name":"Scala Datacenter","lon":-46.81493,"lat":-23.49672,"country":"Brazil","operator":"Equinix","stype":"Data Center"},{"id":"w770978294","name":"Scala SGIGSM01","lon":-43.35598,"lat":-22.79687,"country":"Brazil","operator":"Scala Datacenters","stype":"Data Center"},{"id":"w1023441558","name":"Sferanet","lon":-50.89411,"lat":-22.2279,"country":"Brazil","stype":"Data Center","note":"Rancharia"},{"id":"n13205407608","name":"SIM DIGITAL - POP INGLESES","lon":-48.40583,"lat":-27.43953,"country":"Brazil","stype":"Data Center"},{"id":"w436179911","name":"Unidade Técnica de Aeronavegação - REDE (SERRAMAR)","lon":-46.5283,"lat":-23.89075,"country":"Brazil","operator":"INFRAERO;DECA;Governo Federal","stype":"Data Center","note":"São Bernardo do Campo"},{"id":"w1023441556","name":"Way Internet","lon":-50.89147,"lat":-22.22942,"country":"Brazil","stype":"Data Center","note":"Rancharia"},{"id":"n6633118901","name":"Crypt Logic","lon":23.31683,"lat":42.69424,"country":"Bulgaria","operator":"Crypt Logic LTD","stype":"Data Center"},{"id":"w1123181652","name":"Discover","lon":23.3757,"lat":42.66822,"country":"Bulgaria","stype":"Data Center"},{"id":"n6901177202","name":"Equinix SO1","lon":23.3954,"lat":42.66852,"country":"Bulgaria","operator":"Equinix","stype":"Data Center"},{"id":"w174906464","name":"Evolink","lon":23.26001,"lat":42.67728,"country":"Bulgaria","stype":"Data Center"},{"id":"n8745353247","name":"ORANGE STORE","lon":24.5045,"lat":43.77525,"country":"Bulgaria","stype":"Data Center"},{"id":"w436617258","name":"SDC - София","lon":23.3693,"lat":42.65631,"country":"Bulgaria","operator":"Neterra","stype":"Data Center"},{"id":"n13734763230","name":"Телепоинт София Изток","lon":23.38365,"lat":42.6729,"country":"Bulgaria","operator":"Digital Realty","stype":"Data Center"},{"id":"w33186030","name":"11:11 Systems","lon":-79.75013,"lat":43.59825,"country":"Canada","stype":"Data Center","note":"Mississauga"},{"id":"w33710942","name":"11:11 Systems","lon":-79.73538,"lat":43.60332,"country":"Canada","stype":"Data Center","note":"Mississauga"},{"id":"w288232465","name":"Ascent TOR1","lon":-80.37199,"lat":43.4275,"country":"Canada","operator":"Ascent, LLC","stype":"Data Center"},{"id":"w489387401","name":"Bell Aliant PEI","lon":-63.14367,"lat":46.25102,"country":"Canada","operator":"Bell Canada","stype":"Data Center","note":"Charlottetown"},{"id":"n7683756060","name":"Centre de données d'Hydro-Québec","lon":-72.52789,"lat":45.8839,"country":"Canada","operator":"Hydro-Québec","stype":"Data Center","note":"Drummondville"},{"id":"w290916394","name":"CGI","lon":-79.74629,"lat":43.60132,"country":"Canada","stype":"Data Center"},{"id":"n10151456045","name":"Cologix","lon":-72.54643,"lat":45.87931,"country":"Canada","operator":"Cologix","stype":"Data Center","note":"Drummondville"},{"id":"w1420458489","name":"Cologix","lon":-73.76979,"lat":45.48079,"country":"Canada","operator":"Cologix","stype":"Data Center","note":"Montréal"},{"id":"w129730212","name":"Cologix TOR4","lon":-79.34265,"lat":43.85074,"country":"Canada","stype":"Data Center","note":"Markham"},{"id":"n13747461175","name":"Colosseum Online Inc.","lon":-79.48978,"lat":43.77937,"country":"Canada","stype":"Data Center","note":"Toronto"},{"id":"w59244466","name":"Compass","lon":-79.52897,"lat":43.60162,"country":"Canada","operator":"Compass","stype":"Data Center"},{"id":"w322816286","name":"Cyxtera Toronto YYZ1","lon":-79.75313,"lat":43.59451,"country":"Canada","operator":"Cyxtera","stype":"Data Center"},{"id":"w974334074","name":"Cyxtera Toronto YYZ2","lon":-79.31674,"lat":43.83827,"country":"Canada","operator":"Cyxtera","stype":"Data Center","note":"Markham"},{"id":"w56863431","name":"Digital Realty Toronto YYZ10","lon":-79.32347,"lat":43.83832,"country":"Canada","stype":"Data Center","note":"Markham"},{"id":"w74658241","name":"Digital Realty Toronto YYZ11","lon":-79.54064,"lat":43.77895,"country":"Canada","operator":"Digital Realty","stype":"Data Center"},{"id":"w55462937","name":"Edgeconnex Toronto","lon":-79.34259,"lat":43.80929,"country":"Canada","operator":"EdgeConneX","stype":"Data Center","note":"North York"},{"id":"w869252064","name":"Equinix IBX (WI1)","lon":-97.17801,"lat":49.82502,"country":"Canada","operator":"Equinix","stype":"Data Center"},{"id":"w168520216","name":"Equinix KA1","lon":-120.37988,"lat":50.67556,"country":"Canada","operator":"Equinix","stype":"Data Center","note":"Kamloops"},{"id":"w67138303","name":"Equinix Markham TR5","lon":-79.33318,"lat":43.84685,"country":"Canada","operator":"Equinix","stype":"Data Center"},{"id":"w365733781","name":"Equinix OT1","lon":-75.39841,"lat":45.57467,"country":"Canada","operator":"Equinix","stype":"Data Center","note":"Gatineau"},{"id":"n2733736931","name":"Equinix TR1","lon":-79.38439,"lat":43.64453,"country":"Canada","operator":"Equinix","stype":"Data Center","note":"Toronto"},{"id":"w302107922","name":"Equinix TR2","lon":-79.36177,"lat":43.65093,"country":"Canada","operator":"Equinix","stype":"Data Center","note":"Toronto"},{"id":"w661951723","name":"Equinix TR6","lon":-79.71666,"lat":43.74384,"country":"Canada","operator":"Equinix","stype":"Data Center","note":"Brampton"},{"id":"w662392354","name":"Equinix TR7","lon":-79.71783,"lat":43.74494,"country":"Canada","operator":"Equinix","stype":"Data Center","note":"Brampton"},{"id":"n12303164157","name":"Equinix VA1","lon":-123.01124,"lat":49.26057,"country":"Canada","operator":"Equinix","stype":"Data Center","note":"Burnaby"},{"id":"n13252574597","name":"Hive Digital Technologies","lon":-74.28799,"lat":45.63686,"country":"Canada","stype":"Data Center","note":"Lachute"},{"id":"w1092751673","name":"Hut 8","lon":-110.73848,"lat":50.09296,"country":"Canada","operator":"Hut 8","stype":"Data Center"},{"id":"w40940603","name":"Keel Infrastructure","lon":-71.93089,"lat":45.39264,"country":"Canada","stype":"Data Center"},{"id":"w103363234","name":"Marysville Place","lon":-66.58879,"lat":45.97824,"country":"Canada","stype":"Data Center"},{"id":"w440105283","name":"Maxxam Analytics International Inc.","lon":-79.74122,"lat":43.60568,"country":"Canada","stype":"Data Center"},{"id":"w398917168","name":"Ministry of Government Services Data Centre","lon":-80.19415,"lat":43.4841,"country":"Canada","operator":"The Government of Ontario","stype":"Data Center","note":"Guelph"},{"id":"n8973042667","name":"MT2","lon":-74.05051,"lat":45.41262,"country":"Canada","operator":"Equinix","stype":"Data Center","note":"Vaudreuil-Dorion"},{"id":"w661065639","name":"Nüday Networks","lon":-79.33448,"lat":43.82695,"country":"Canada","stype":"Data Center","note":"Markham"},{"id":"r1701662","name":"OVHcloud, Centre de données de Beauharnois","lon":-73.89388,"lat":45.30845,"country":"Canada","stype":"Data Center"},{"id":"n4922135764","name":"Pathway Communications","lon":-79.35654,"lat":43.85736,"country":"Canada","stype":"Data Center","note":"Markham"},{"id":"w1171439340","name":"QScale","lon":-71.32506,"lat":46.67616,"country":"Canada","stype":"Data Center"},{"id":"n9664758614","name":"Rack & Data","lon":-80.47277,"lat":43.42305,"country":"Canada","stype":"Data Center","note":"Kitchener"},{"id":"w208650151","name":"RBC Guelph Data Centre","lon":-80.2087,"lat":43.49687,"country":"Canada","operator":"Royal Bank of Canada","stype":"Data Center","note":"Guelph"},{"id":"w661065569","name":"Rogers","lon":-79.34319,"lat":43.82688,"country":"Canada","stype":"Data Center","note":"Markham"},{"id":"w95770024","name":"Rogers Calgary Data Centre 2","lon":-114.09216,"lat":51.04387,"country":"Canada","stype":"Data Center","note":"Calgary"},{"id":"w67138292","name":"Rogers Data Center","lon":-79.36486,"lat":43.84429,"country":"Canada","stype":"Data Center"},{"id":"w828606781","name":"SaskTel","lon":-107.82584,"lat":50.28767,"country":"Canada","stype":"Data Center"},{"id":"w828606828","name":"SaskTel","lon":-107.80237,"lat":50.28475,"country":"Canada","stype":"Data Center"},{"id":"w28596260","name":"Telus","lon":-79.36053,"lat":43.70501,"country":"Canada","stype":"Data Center","note":"East York"},{"id":"w627266016","name":"Telus","lon":-102.99449,"lat":49.14321,"country":"Canada","stype":"Data Center"},{"id":"w292128594","name":"Telus Calgary Internet Data Centre","lon":-114.09597,"lat":51.04395,"country":"Canada","stype":"Data Center","note":"Calgary"},{"id":"w813475618","name":"Telus Kamloops Data Centre","lon":-120.37743,"lat":50.67714,"country":"Canada","stype":"Data Center"},{"id":"w58361249","name":"Urbacon Data Centre","lon":-79.6209,"lat":43.7407,"country":"Canada","stype":"Data Center"},{"id":"n13604170384","name":"VAN1","lon":-123.11178,"lat":49.28446,"country":"Canada","operator":"Cologix","stype":"Data Center"},{"id":"w154377787","name":"VAN3","lon":-123.02967,"lat":49.25943,"country":"Canada","operator":"Cologix","stype":"Data Center"},{"id":"n12634611897","name":"VAN4","lon":-123.10871,"lat":49.28355,"country":"Canada","operator":"Cologix","stype":"Data Center"},{"id":"n13604170385","name":"VAN5","lon":-123.11185,"lat":49.28442,"country":"Canada","operator":"Cologix","stype":"Data Center"},{"id":"r19187352","name":"Vantage Data Centers","lon":-71.30521,"lat":46.79514,"country":"Canada","operator":"Vantage Data Centers","stype":"Data Center"},{"id":"w584390127","name":"Vantage Data Centers Montreal I","lon":-73.75613,"lat":45.48667,"country":"Canada","operator":"Vantage Data Centers","stype":"Data Center","note":"Montréal"},{"id":"w848201800","name":"Vantage Montreal II","lon":-73.80007,"lat":45.47464,"country":"Canada","operator":"Vantage Data Centers","stype":"Data Center","note":"Pointe-Claire"},{"id":"w94462720","name":"Actis Data Center","lon":-70.74886,"lat":-33.81206,"country":"Chile","operator":"Actis","stype":"Data Center"},{"id":"n13765657264","name":"Amazon Web Services","lon":-70.60663,"lat":-33.41708,"country":"Chile","operator":"Amazon Web Services","stype":"Data Center"},{"id":"w1182624646","name":"Amazon Web Services","lon":-70.84861,"lat":-52.94162,"country":"Chile","operator":"Amazon Web Services","stype":"Data Center"},{"id":"w1296990345","name":"Amazon Web Services","lon":-70.81282,"lat":-33.55657,"country":"Chile","operator":"Amazon Web Services","stype":"Data Center"},{"id":"w1176042553","name":"AWS","lon":-70.85009,"lat":-52.94216,"country":"Chile","operator":"Amazon Web Services","stype":"Data Center"},{"id":"w272108760","name":"Central de Transmisiones","lon":-70.63259,"lat":-33.42462,"country":"Chile","stype":"Data Center","note":"Providencia"},{"id":"w1109152125","name":"Cirion","lon":-70.67588,"lat":-33.35824,"country":"Chile","stype":"Data Center"},{"id":"w1295016560","name":"COLO 1","lon":-70.69778,"lat":-33.33778,"country":"Chile","operator":"Microsoft","stype":"Data Center"},{"id":"w1295016559","name":"COLO 2","lon":-70.69861,"lat":-33.33809,"country":"Chile","operator":"Microsoft","stype":"Data Center"},{"id":"n11280595231","name":"Data Center IFX Networks","lon":-70.60007,"lat":-33.41876,"country":"Chile","operator":"IFX Networks","stype":"Data Center"},{"id":"w1424249774","name":"Data Center L7","lon":-70.75238,"lat":-33.41024,"country":"Chile","stype":"Data Center"},{"id":"n12969574545","name":"Datacenter Conavicoop","lon":-70.64817,"lat":-33.44518,"country":"Chile","stype":"Data Center"},{"id":"w1385788091","name":"DC STO1","lon":-70.71039,"lat":-33.5312,"country":"Chile","stype":"Data Center"},{"id":"w1295098902","name":"DC STO2","lon":-70.70913,"lat":-33.5318,"country":"Chile","stype":"Data Center"},{"id":"n11278586220","name":"Equinix Data Center - ST3","lon":-70.65616,"lat":-33.44419,"country":"Chile","operator":"Equinix","stype":"Data Center"},{"id":"w703242718","name":"Equinix data center - ST4","lon":-71.39971,"lat":-33.95616,"country":"Chile","operator":"Equinix","stype":"Data Center"},{"id":"w233485459","name":"Google Data Center","lon":-70.69485,"lat":-33.35838,"country":"Chile","operator":"Google","stype":"Data Center"},{"id":"w406047564","name":"Microsoft Chile","lon":-70.56651,"lat":-33.38735,"country":"Chile","operator":"Microsoft","stype":"Data Center","note":"Vitacura"},{"id":"n5321056354","name":"Servicio Televisión por Cable","lon":-71.50791,"lat":-32.99633,"country":"Chile","stype":"Data Center","note":"Viña del Mar"},{"id":"w766344822","name":"ST1","lon":-70.85159,"lat":-33.44759,"country":"Chile","stype":"Data Center"},{"id":"w537218289","name":"ST2","lon":-70.85113,"lat":-33.44813,"country":"Chile","stype":"Data Center"},{"id":"w759872064","name":"1A","lon":109.92275,"lat":39.72293,"country":"China","stype":"Data Center"},{"id":"w759872065","name":"1B","lon":109.92387,"lat":39.72198,"country":"China","stype":"Data Center"},{"id":"w841378985","name":"2","lon":109.92381,"lat":39.72048,"country":"China","stype":"Data Center"},{"id":"w839662454","name":"3","lon":109.9251,"lat":39.71923,"country":"China","stype":"Data Center"},{"id":"w759872066","name":"4","lon":109.9194,"lat":39.71873,"country":"China","operator":"中国电信","stype":"Data Center"},{"id":"w1182947275","name":"Agricultural Bank of China (Data Center)","lon":121.60617,"lat":31.30762,"country":"China","stype":"Data Center"},{"id":"w958847155","name":"Apple iCloud Gui'An data center","lon":106.46717,"lat":26.36284,"country":"China","stype":"Data Center"},{"id":"w1182947308","name":"GDS Shanghai Data Center","lon":121.60015,"lat":31.32305,"country":"China","stype":"Data Center"},{"id":"n9903281673","name":"Microsoft","lon":113.31755,"lat":23.13466,"country":"China","operator":"Microsoft","stype":"Data Center"},{"id":"n11221719097","name":"Microsoft","lon":121.49537,"lat":31.23915,"country":"China","operator":"Microsoft","stype":"Data Center"},{"id":"w797826487","name":"万国数据深圳4号数据中心","lon":114.36654,"lat":22.71344,"country":"China","stype":"Data Center"},{"id":"n7075542867","name":"中南大学后勤生活服务中心","lon":112.93533,"lat":28.22485,"country":"China","stype":"Data Center"},{"id":"w1158482154","name":"中国建设银行武汉数据中心","lon":114.36893,"lat":30.4919,"country":"China","stype":"Data Center"},{"id":"n7207404976","name":"中国电信","lon":118.82094,"lat":28.41884,"country":"China","stype":"Data Center"},{"id":"w1296574821","name":"中国电信 深圳亚森数据中心","lon":114.27376,"lat":22.68671,"country":"China","operator":"中国电信","stype":"Data Center"},{"id":"n8920088329","name":"中国电信（科云数据中心）","lon":113.532,"lat":23.21514,"country":"China","stype":"Data Center"},{"id":"w1414549397","name":"中国电信佛山（开普勒）华南数据中心","lon":113.0465,"lat":23.03881,"country":"China","stype":"Data Center"},{"id":"w1347464854","name":"中国电信南京（吉山）云计算中心","lon":118.76436,"lat":31.82195,"country":"China","stype":"Data Center"},{"id":"n10993896233","name":"中国电信宿迁分公司云计算中心","lon":118.32513,"lat":33.9511,"country":"China","stype":"Data Center"},{"id":"w1414403072","name":"中国电信智慧城市数据中心","lon":113.05098,"lat":23.00775,"country":"China","stype":"Data Center"},{"id":"w982367712","name":"中国移动(广东湛江)数据中心","lon":110.34693,"lat":21.20339,"country":"China","stype":"Data Center"},{"id":"w1006126932","name":"中国移动（广西）数据中心","lon":108.39052,"lat":22.71632,"country":"China","stype":"Data Center"},{"id":"w905719338","name":"中国联通三明分公司","lon":117.64787,"lat":26.28289,"country":"China","stype":"Data Center"},{"id":"n11073240773","name":"中国联通奎文云计算中心","lon":119.12525,"lat":36.66985,"country":"China","stype":"Data Center"},{"id":"w1336852426","name":"中国联通宁波分公司总部","lon":121.63227,"lat":29.87726,"country":"China","stype":"Data Center"},{"id":"w1483729407","name":"中国联通武威分公司","lon":102.62688,"lat":37.93354,"country":"China","stype":"Data Center"},{"id":"w1219605864","name":"中国联通衡阳大数据中心","lon":112.54851,"lat":26.87737,"country":"China","stype":"Data Center"},{"id":"n10171383675","name":"中国银行数据中心","lon":116.2633,"lat":40.03391,"country":"China","stype":"Data Center"},{"id":"w1125136830","name":"临沂华为大数据中心","lon":118.42384,"lat":35.0109,"country":"China","stype":"Data Center"},{"id":"w1489795658","name":"乌兰察布华为云数据中心","lon":113.23214,"lat":40.99417,"country":"China","stype":"Data Center"},{"id":"n13780891344","name":"信息中心","lon":113.62567,"lat":24.79386,"country":"China","operator":"韶关市职业综合高级中学","stype":"Data Center","note":"韶关市"},{"id":"w957884276","name":"北京市信息安全容灾备份中心","lon":116.74882,"lat":40.36691,"country":"China","stype":"Data Center"},{"id":"w980172878","name":"华为四川大数据中心","lon":105.49317,"lat":28.86283,"country":"China","stype":"Data Center"},{"id":"w1055051150","name":"华为山西（吕梁）大数据中心","lon":111.21994,"lat":37.53174,"country":"China","stype":"Data Center"},{"id":"w1009365291","name":"华南国家计量测试中心","lon":113.54652,"lat":23.19993,"country":"China","stype":"Data Center"},{"id":"n13508706521","name":"华南师范大学广州校区石牌校园网络中心","lon":113.34434,"lat":23.13993,"country":"China","stype":"Data Center"},{"id":"w1243684282","name":"国家超算互联网核心节点","lon":113.75939,"lat":34.80598,"country":"China","stype":"Data Center"},{"id":"w1201847647","name":"国家超级计算天津中心","lon":117.72075,"lat":39.0424,"country":"China","stype":"Data Center"},{"id":"w1197569182","name":"国家超级计算天津中心（新）","lon":117.72036,"lat":39.04021,"country":"China","stype":"Data Center"},{"id":"w1115467384","name":"大数据中心","lon":118.63657,"lat":32.02614,"country":"China","stype":"Data Center"},{"id":"n12284933379","name":"天河超级计算淮海分中心","lon":118.37697,"lat":35.19612,"country":"China","stype":"Data Center"},{"id":"w1254828630","name":"天津广电网络数据中心","lon":117.28775,"lat":39.69149,"country":"China","stype":"Data Center"},{"id":"n8699932362","name":"宏成集团大数据中心","lon":117.31727,"lat":35.8691,"country":"China","stype":"Data Center"},{"id":"w1253903177","name":"宝坻移动公司","lon":117.29308,"lat":39.68939,"country":"China","stype":"Data Center"},{"id":"w1253893668","name":"宝坻联通","lon":117.31756,"lat":39.72418,"country":"China","stype":"Data Center"},{"id":"w1254818450","name":"宝坻联通","lon":117.26844,"lat":39.65881,"country":"China","stype":"Data Center"},{"id":"w1426695931","name":"宝观移动通信枢纽楼","lon":114.06116,"lat":22.68969,"country":"China","operator":"中国移动","stype":"Data Center"},{"id":"w945945899","name":"广东农信数据中心","lon":113.15309,"lat":23.07333,"country":"China","stype":"Data Center"},{"id":"w1285109031","name":"广州南站RBC中心","lon":113.27002,"lat":22.98242,"country":"China","stype":"Data Center"},{"id":"n10873403420","name":"广州长途电信线路局","lon":113.26792,"lat":23.14605,"country":"China","stype":"Data Center"},{"id":"w970019706","name":"成都超算中心","lon":104.10639,"lat":30.38846,"country":"China","stype":"Data Center"},{"id":"w207890264","name":"数字北京","lon":116.38184,"lat":39.994,"country":"China","stype":"Data Center"},{"id":"n11411205375","name":"数据中心","lon":121.65848,"lat":31.24186,"country":"China","stype":"Data Center"},{"id":"w1370886996","name":"曲江市政数据中心","lon":109.02113,"lat":34.20579,"country":"China","stype":"Data Center"},{"id":"w1361170454","name":"有孚深圳宝安云计算数据中心","lon":113.91726,"lat":22.66353,"country":"China","operator":"有孚","stype":"Data Center"},{"id":"w1455942782","name":"武威电信综合大楼","lon":102.63411,"lat":37.92967,"country":"China","stype":"Data Center"},{"id":"w1485721566","name":"武当云谷大数据中心园区","lon":111.48833,"lat":32.54753,"country":"China","operator":"武当云谷大数据科技有限公司","stype":"Data Center"},{"id":"w1194044206","name":"江南农村商业银行数据中心","lon":119.5865,"lat":31.72363,"country":"China","stype":"Data Center"},{"id":"w1426699261","name":"深圳联通 同乐IDC","lon":114.31666,"lat":22.72232,"country":"China","operator":"中国联通","stype":"Data Center"},{"id":"w1358134671","name":"湖南移动衡阳分公司5G云数据中心","lon":112.60723,"lat":26.85441,"country":"China","stype":"Data Center"},{"id":"w1347462205","name":"烟台中金数据系统有限公司","lon":121.13471,"lat":37.5646,"country":"China","stype":"Data Center"},{"id":"w1348853309","name":"甘肃紫金云大数据开发有限责任公司","lon":102.23916,"lat":38.54922,"country":"China","stype":"Data Center"},{"id":"w1413300448","name":"百度云计算（阳泉）中心","lon":113.62251,"lat":37.85973,"country":"China","stype":"Data Center"},{"id":"n8887386717","name":"百度博浩机房","lon":113.56345,"lat":23.20914,"country":"China","stype":"Data Center"},{"id":"n12611699905","name":"百度地图顺德数据中心","lon":113.32399,"lat":22.77502,"country":"China","stype":"Data Center"},{"id":"n8670268773","name":"立岭驾驶人服务中心","lon":117.21053,"lat":37.72505,"country":"China","stype":"Data Center"},{"id":"w1289607880","name":"综合实验楼","lon":110.50385,"lat":19.98291,"country":"China","stype":"Data Center"},{"id":"n7074394965","name":"联想售后服务中心(银盆路店)","lon":112.94991,"lat":28.22052,"country":"China","stype":"Data Center"},{"id":"w1082803064","name":"联通云数据中心·齐齐哈尔","lon":123.94847,"lat":47.34024,"country":"China","stype":"Data Center"},{"id":"w958847154","name":"腾讯贵安七星数据中心","lon":106.50068,"lat":26.36958,"country":"China","stype":"Data Center"},{"id":"w1345688742","name":"苏尼特左旗档案局","lon":113.65006,"lat":43.84295,"country":"China","stype":"Data Center"},{"id":"w971289359","name":"计算中心","lon":116.32218,"lat":39.95845,"country":"China","stype":"Data Center"},{"id":"n7074557136","name":"长沙市交通事故快处快赔服务中心","lon":112.92793,"lat":28.23092,"country":"China","stype":"Data Center"},{"id":"w1489759025","name":"阿里巴巴乌兰察布数据中心","lon":113.24295,"lat":40.98281,"country":"China","stype":"Data Center"},{"id":"n8261871164","name":"顺兴通讯","lon":112.91794,"lat":27.82334,"country":"China","stype":"Data Center"},{"id":"w860575850","name":"鲁南大数据中心","lon":117.34201,"lat":34.82147,"country":"China","stype":"Data Center"},{"id":"w1219803354","name":"鲁西南大数据中心","lon":115.51971,"lat":35.20004,"country":"China","stype":"Data Center"},{"id":"w1431413742","name":"Araguaney","lon":-72.29479,"lat":5.4159,"country":"Colombia","operator":"Telefonica","stype":"Data Center"},{"id":"w1433879104","name":"CENTRO CONCILIACION DE LA UNIVERSIDAD DE SANTANDER","lon":-73.24734,"lat":10.47841,"country":"Colombia","stype":"Data Center"},{"id":"w1433879105","name":"Programa desarrollo y paz del Cesar","lon":-73.24748,"lat":10.47846,"country":"Colombia","stype":"Data Center"},{"id":"n12832532089","name":"Sala E","lon":-73.58388,"lat":4.07474,"country":"Colombia","stype":"Data Center"},{"id":"r13642887","name":"TELECOM","lon":-75.12202,"lat":9.71563,"country":"Colombia","stype":"Data Center"},{"id":"w1252669642","name":"VIVE DIGITAL","lon":-72.28648,"lat":4.82038,"country":"Colombia","stype":"Data Center"},{"id":"n9878452494","name":"Amazon","lon":-84.07071,"lat":9.94571,"country":"Costa Rica","operator":"Amazon Web Services","stype":"Data Center"},{"id":"w156266896","name":"Archivo Judicial","lon":-84.1661,"lat":10.00825,"country":"Costa Rica","stype":"Data Center"},{"id":"w953200002","name":"Centro de Cómputo","lon":-84.03674,"lat":9.88942,"country":"Costa Rica","stype":"Data Center"},{"id":"w1323035709","name":"Centro de Datos - Banco Nacional","lon":-84.0592,"lat":9.97496,"country":"Costa Rica","operator":"Banco Nacional","stype":"Data Center"},{"id":"w98627758","name":"Edificio de Operaciones","lon":-85.65258,"lat":10.64834,"country":"Costa Rica","stype":"Data Center"},{"id":"w922257441","name":"ICE - Centro de Datos","lon":-83.94362,"lat":9.82165,"country":"Costa Rica","operator":"ICE","stype":"Data Center"},{"id":"n10749325391","name":"Microsoft","lon":-84.09882,"lat":9.93122,"country":"Costa Rica","operator":"Microsoft","stype":"Data Center","note":"San José"},{"id":"w983298525","name":"A1 data centar","lon":15.98159,"lat":45.76466,"country":"Croatia","operator":"A1 Hrvatska d.o.o.","stype":"Data Center","note":"Zagreb"},{"id":"n11522161405","name":"Data Link","lon":16.84614,"lat":45.90339,"country":"Croatia","stype":"Data Center"},{"id":"n13809854906","name":"Podatkovni centar HR-ZOO OS","lon":18.70518,"lat":45.55651,"country":"Croatia","operator":"Sveučilišni računski centar","stype":"Data Center"},{"id":"n13809856865","name":"Podatkovni centar HR-ZOO RI","lon":14.46679,"lat":45.32876,"country":"Croatia","operator":"Sveučilišni računski centar","stype":"Data Center"},{"id":"n13809854904","name":"Podatkovni centar HR-ZOO ZG1","lon":15.96965,"lat":45.79228,"country":"Croatia","operator":"Sveučilišni računski centar","stype":"Data Center"},{"id":"n13809854905","name":"Podatkovni centar HR-ZOO ZG2","lon":16.04265,"lat":45.81512,"country":"Croatia","operator":"Sveučilišni računski centar","stype":"Data Center"},{"id":"n13752762948","name":"Podatkovni centar Hrvatskog telekoma","lon":15.94288,"lat":45.79722,"country":"Croatia","stype":"Data Center"},{"id":"w936382486","name":"Satelitsko i multimedijsko središte Deanovec","lon":16.47488,"lat":45.70006,"country":"Croatia","operator":"Odašiljači i veze d.o.o.","stype":"Data Center"},{"id":"w674001379","name":"Bluenap Americas","lon":-68.95518,"lat":12.17787,"country":"Curaçao","stype":"Data Center"},{"id":"w142366497","name":"CE Colo","lon":14.48295,"lat":50.06015,"country":"Czechia","operator":"CE Colo Czech s.r.o.","stype":"Data Center","note":"Praha 10"},{"id":"n13065218477","name":"Datové centrum Coolhousing","lon":14.47371,"lat":50.07786,"country":"Czechia","operator":"Coolhousing s.r.o.","stype":"Data Center","note":"Praha"},{"id":"w633071611","name":"Datové centrum DC7","lon":14.52822,"lat":50.06478,"country":"Czechia","operator":"T-Mobile","stype":"Data Center"},{"id":"w418593276","name":"Datové centrum Kokura","lon":14.5929,"lat":50.11726,"country":"Czechia","stype":"Data Center"},{"id":"w1227095270","name":"Datové centrum Nagoja","lon":14.85388,"lat":50.26819,"country":"Czechia","operator":"Seznam.cz","stype":"Data Center"},{"id":"n11570619130","name":"Datové centrum Zeleneč","lon":14.65669,"lat":50.13799,"country":"Czechia","stype":"Data Center"},{"id":"w281398489","name":"DC Brno - FASTER CZ","lon":16.65954,"lat":49.21629,"country":"Czechia","operator":"O2 Czech Republic a.s.","stype":"Data Center"},{"id":"w127931842","name":"DC Chodov","lon":14.50345,"lat":50.02522,"country":"Czechia","operator":"O2 Czech Republic a.s.","stype":"Data Center"},{"id":"n11436652400","name":"DC Monaco","lon":17.48417,"lat":49.07831,"country":"Czechia","operator":"O2 Czech Republic a.s.","stype":"Data Center"},{"id":"w49548520","name":"DC Stodůlky","lon":14.33078,"lat":50.04956,"country":"Czechia","operator":"O2 Czech Republic a.s.","stype":"Data Center"},{"id":"w22776917","name":"DC Tower","lon":14.45174,"lat":50.08097,"country":"Czechia","operator":"České Radiokomunikace, a.s.","stype":"Data Center"},{"id":"w50110392","name":"DC Vega","lon":14.48581,"lat":50.12566,"country":"Czechia","stype":"Data Center"},{"id":"n11436652399","name":"DC6.cz","lon":14.34373,"lat":50.10161,"country":"Czechia","stype":"Data Center"},{"id":"n9956577119","name":"forpsi DC CZ1","lon":14.13201,"lat":48.91661,"country":"Czechia","operator":"forpsi","stype":"Data Center"},{"id":"n11436652398","name":"MasterDC Praha","lon":14.46389,"lat":50.06963,"country":"Czechia","stype":"Data Center"},{"id":"w27823396","name":"SafeDX s.r.o.","lon":14.49533,"lat":50.0989,"country":"Czechia","stype":"Data Center"},{"id":"n12015570907","name":"T-Mobile","lon":14.47481,"lat":50.07796,"country":"Czechia","stype":"Data Center"},{"id":"n12536185445","name":"TTC DC1","lon":14.53334,"lat":50.082,"country":"Czechia","stype":"Data Center"},{"id":"w32338593","name":"TTC TELEPORT - DC1","lon":14.53364,"lat":50.082,"country":"Czechia","stype":"Data Center"},{"id":"w49870693","name":"TTC TELEPORT - DC2","lon":14.52144,"lat":50.08047,"country":"Czechia","stype":"Data Center"},{"id":"n3761896088","name":"VSHosting s.r.o","lon":14.53026,"lat":50.06014,"country":"Czechia","stype":"Data Center"},{"id":"w71054828","name":"WEDOS DC 1 Masarykova","lon":14.43469,"lat":49.05242,"country":"Czechia","stype":"Data Center"},{"id":"w800615347","name":"WEDOS DC2 Podskalí","lon":14.44338,"lat":49.05336,"country":"Czechia","operator":"Wedos","stype":"Data Center","note":"Hluboká nad Vltavou"},{"id":"n5239733106","name":"Adeo Datacenter ApS","lon":12.36779,"lat":55.66773,"country":"Denmark","stype":"Data Center"},{"id":"w1216992892","name":"CPH01","lon":12.09933,"lat":55.58118,"country":"Denmark","operator":"Microsoft","stype":"Data Center"},{"id":"w1355695031","name":"CPH07","lon":12.25922,"lat":55.6437,"country":"Denmark","operator":"Microsoft","stype":"Data Center"},{"id":"w25629568","name":"Digital Realty Copenhagen CPH1","lon":12.37737,"lat":55.72764,"country":"Denmark","operator":"Digital Realty","stype":"Data Center"},{"id":"w1094485846","name":"Digital Realty Copenhagen CPH2","lon":12.37604,"lat":55.72779,"country":"Denmark","operator":"Digital Realty","stype":"Data Center"},{"id":"w436766762","name":"Google Data Center Fredericia","lon":9.65317,"lat":55.55797,"country":"Denmark","operator":"Google","stype":"Data Center"},{"id":"r2171258","name":"Interxion CPH02","lon":12.3763,"lat":55.72654,"country":"Denmark","stype":"Data Center"},{"id":"w941798564","name":"Interxion CPH03","lon":12.37995,"lat":55.72666,"country":"Denmark","stype":"Data Center"},{"id":"w648731568","name":"Meta Odense Data center","lon":10.48505,"lat":55.36673,"country":"Denmark","operator":"Meta","stype":"Data Center"},{"id":"w940299764","name":"Meta Odense Data Center","lon":10.48113,"lat":55.36921,"country":"Denmark","operator":"Meta","stype":"Data Center"},{"id":"w618756435","name":"Prime Data Centers - Saeby Campus AAL01","lon":10.50074,"lat":57.31865,"country":"Denmark","operator":"Prime Data Centers","stype":"Data Center"},{"id":"n11654525058","name":"Ribe Hostingcenter","lon":8.77398,"lat":55.34538,"country":"Denmark","operator":"Ribe Mediehus","stype":"Data Center"},{"id":"n13144664581","name":"stoltenhoff.net","lon":9.44329,"lat":54.98684,"country":"Denmark","stype":"Data Center"},{"id":"n13468814937","name":"Microsoft","lon":-69.94119,"lat":18.47258,"country":"Dominican Republic","operator":"Microsoft","stype":"Data Center"},{"id":"w1447472694","name":"Centro de Datos - CNT","lon":-80.0854,"lat":-2.19931,"country":"Ecuador","stype":"Data Center"},{"id":"w1437038742","name":"CNT - Nodo Bastión CTG","lon":-79.93,"lat":-2.10619,"country":"Ecuador","stype":"Data Center"},{"id":"n4270037002","name":"DEL PRADO .com.ec","lon":-78.50226,"lat":-0.24403,"country":"Ecuador","operator":"DEL PRADO .com.ec","stype":"Data Center","note":"Quito"},{"id":"n6518648227","name":"DEVESOFFT S.A.","lon":-78.42767,"lat":-0.19735,"country":"Ecuador","stype":"Data Center"},{"id":"n12394771093","name":"Servidor","lon":-79.19955,"lat":-4.03004,"country":"Ecuador","operator":"UNL","stype":"Data Center"},{"id":"n7530756786","name":"Wayratechs","lon":-78.66752,"lat":-1.65616,"country":"Ecuador","stype":"Data Center"},{"id":"n12638529683","name":"NutroCloud","lon":30.86786,"lat":30.8419,"country":"Egypt","operator":"7tteam","stype":"Data Center"},{"id":"w1200987490","name":"Centro Nacional de Registros","lon":-89.21339,"lat":13.70299,"country":"El Salvador","stype":"Data Center"},{"id":"w1118732098","name":"Estacion Terrena Izalco","lon":-89.58938,"lat":13.73786,"country":"El Salvador","stype":"Data Center"},{"id":"n9768148106","name":"Elektron","lon":-6.77108,"lat":62.0216,"country":"Faroe Islands","stype":"Data Center"},{"id":"n10648255815","name":"CSC – IT Center for Science","lon":27.69651,"lat":64.23164,"country":"Finland","operator":"CSC","stype":"Data Center"},{"id":"n9626439921","name":"Easylinehost Finland Oy","lon":27.6593,"lat":62.89418,"country":"Finland","stype":"Data Center","note":"Kuopio"},{"id":"n12167701341","name":"Elisa","lon":23.75621,"lat":61.49397,"country":"Finland","stype":"Data Center","note":"Tampere"},{"id":"w1462706960","name":"Equinix Data Center","lon":24.77566,"lat":60.20379,"country":"Finland","operator":"Equinix","stype":"Data Center","note":"Espoo"},{"id":"w13780142","name":"Equinix Data Center HE5","lon":24.98559,"lat":60.22137,"country":"Finland","operator":"Equinix","stype":"Data Center","note":"Helsinki"},{"id":"w96258618","name":"Equinix Data Center HE6","lon":24.77853,"lat":60.20312,"country":"Finland","operator":"Equinix","stype":"Data Center","note":"Espoo"},{"id":"n13416957557","name":"Equinix Helsinki HE3","lon":24.96841,"lat":60.18496,"country":"Finland","operator":"Equinix","stype":"Data Center","note":"Helsinki"},{"id":"n13416964613","name":"Equinix Helsinki HE4","lon":24.83814,"lat":60.28391,"country":"Finland","operator":"Equinix","stype":"Data Center","note":"Vantaa"},{"id":"w1189230940","name":"Ficolo The Rock","lon":21.89145,"lat":61.50013,"country":"Finland","operator":"Ficolo","stype":"Data Center","note":"Ulvila"},{"id":"w846760920","name":"Global DC OY","lon":25.26396,"lat":60.62893,"country":"Finland","operator":"Yandex","stype":"Data Center"},{"id":"w748868810","name":"Google","lon":27.11366,"lat":60.5397,"country":"Finland","operator":"Google","stype":"Data Center","note":"Hamina"},{"id":"w459879213","name":"Hetzner data center - HEL1","lon":25.03122,"lat":60.34233,"country":"Finland","operator":"Hetzner Finland Oy","stype":"Data Center"},{"id":"n10648294221","name":"LUMI (supercomputer)","lon":27.69561,"lat":64.23197,"country":"Finland","operator":"EuroHPC/CSC","stype":"Data Center"},{"id":"w640329703","name":"Telia HDC","lon":24.87772,"lat":60.21591,"country":"Finland","operator":"Telia Finland Oyj","stype":"Data Center","note":"Helsinki"},{"id":"n8945351837","name":"The Deck","lon":23.77571,"lat":61.4979,"country":"Finland","operator":"Ficolo","stype":"Data Center"},{"id":"n9709502908","name":"Tietokettu","lon":23.7572,"lat":61.31532,"country":"Finland","operator":"Tietokettu","stype":"Data Center","note":"Lempäälä"},{"id":"w26933574","name":"Verne Global HELSINKI","lon":25.10116,"lat":60.30343,"country":"Finland","operator":"Verne Global","stype":"Data Center","note":"Vantaa"},{"id":"n6289753941","name":"Acropolis Telecom Paris-Nation","lon":2.4041,"lat":48.84288,"country":"France","stype":"Data Center","note":"Paris"},{"id":"n6289367991","name":"Ad Valem technologies TDF","lon":2.34108,"lat":48.92806,"country":"France","stype":"Data Center","note":"Saint-Denis"},{"id":"n6212785490","name":"Adista Saint-Étienne","lon":4.39638,"lat":45.45869,"country":"France","stype":"Data Center","note":"Saint-Étienne"},{"id":"w969469076","name":"Advanced Mediomatrix","lon":6.23751,"lat":49.08566,"country":"France","operator":"Advanced Mediomatrix","stype":"Data Center"},{"id":"w83087845","name":"Albiréo","lon":2.26789,"lat":43.56479,"country":"France","operator":"Albiant IT","stype":"Data Center"},{"id":"w135461168","name":"Albiréo","lon":2.27471,"lat":43.5541,"country":"France","operator":"Albiant IT","stype":"Data Center"},{"id":"w813676827","name":"Aliénor.net","lon":-0.59791,"lat":44.87399,"country":"France","operator":"Alienor.net","stype":"Data Center"},{"id":"n6289873866","name":"Alionis DC1","lon":2.21378,"lat":48.68872,"country":"France","stype":"Data Center","note":"Villebon Sur Yvette"},{"id":"n6289527565","name":"Alphalink Telco Center","lon":2.25949,"lat":48.90562,"country":"France","stype":"Data Center","note":"Courbevoie"},{"id":"n2161096396","name":"Association ReptiGo","lon":6.01115,"lat":49.22339,"country":"France","stype":"Data Center"},{"id":"w49261097","name":"B4","lon":7.03254,"lat":43.627,"country":"France","operator":"Air France","stype":"Data Center"},{"id":"w849203405","name":"Bâtiment Data Center","lon":2.24397,"lat":48.77788,"country":"France","operator":"MBDA France","stype":"Data Center"},{"id":"r19660889","name":"BNP Paribas (Hello Bank!)","lon":2.80256,"lat":48.83669,"country":"France","stype":"Data Center"},{"id":"w113172925","name":"BNP Paribas Centre de Traitement Informatique (CTI) Marne Nord","lon":2.72947,"lat":48.83028,"country":"France","operator":"BNP Paribas","stype":"Data Center"},{"id":"w115416148","name":"BNP Paribas Marne Sud","lon":2.64249,"lat":48.81721,"country":"France","operator":"BNP Paribas","stype":"Data Center"},{"id":"w650560924","name":"Bouygues Telecom","lon":5.03392,"lat":47.29611,"country":"France","stype":"Data Center","note":"Longvic"},{"id":"n6174610289","name":"Bouygues Telecom Montigny-le-Bretonneux","lon":2.03631,"lat":48.79445,"country":"France","operator":"Bouygues Telecom","stype":"Data Center","note":"Montigny le Bretonneux"},{"id":"w82943291","name":"BT Blue","lon":-1.40395,"lat":48.10067,"country":"France","stype":"Data Center"},{"id":"w509892105","name":"Castle IT","lon":0.76929,"lat":47.34922,"country":"France","stype":"Data Center","note":"Larçay"},{"id":"w1409758368","name":"CDG1","lon":2.40914,"lat":48.59678,"country":"France","operator":"CloudHQ","stype":"Data Center"},{"id":"w482853508","name":"Centre de Calcul de l’Université de Bourgogne","lon":5.07089,"lat":47.31492,"country":"France","stype":"Data Center","note":"Dijon"},{"id":"w1288320747","name":"Centre de Calculs et de Données LyonTech-la Doua","lon":4.86527,"lat":45.78156,"country":"France","operator":"Université Claude Bernard - Lyon 1","stype":"Data Center"},{"id":"w875153822","name":"Centre de données","lon":3.01636,"lat":50.68001,"country":"France","stype":"Data Center","note":"Verlinghem"},{"id":"w1030901315","name":"Centre de données MAIF","lon":-0.3765,"lat":46.3454,"country":"France","operator":"MAIF;DARVA","stype":"Data Center"},{"id":"r3358244","name":"Centre Régional de Ressources Informatiques (CRRI)","lon":3.10931,"lat":45.76277,"country":"France","operator":"Université Clermont Auvergne","stype":"Data Center"},{"id":"r3718269","name":"CINES","lon":3.84222,"lat":43.63615,"country":"France","stype":"Data Center"},{"id":"w600607931","name":"CIV Anzin","lon":3.52208,"lat":50.3783,"country":"France","stype":"Data Center","note":"Anzin"},{"id":"w667259766","name":"CIV Sainghin-en-Mélantois","lon":3.13647,"lat":50.58409,"country":"France","stype":"Data Center","note":"Sainghin-en-Mélantois"},{"id":"w134884282","name":"CNAF Sophia-Antipolis","lon":7.03887,"lat":43.62335,"country":"France","operator":"CNAF","stype":"Data Center"},{"id":"w421253670","name":"CNRS","lon":2.22808,"lat":48.6498,"country":"France","stype":"Data Center"},{"id":"n6898386156","name":"Cogent","lon":-0.55545,"lat":44.86299,"country":"France","operator":"Cogent Communications","stype":"Data Center"},{"id":"n7522025783","name":"Cogent","lon":5.73691,"lat":45.18964,"country":"France","operator":"Cogent Communications, Inc.","stype":"Data Center"},{"id":"w126029978","name":"Cogent Dijon","lon":5.03047,"lat":47.30883,"country":"France","operator":"Cogent","stype":"Data Center"},{"id":"w84942310","name":"Cogent Lille","lon":3.09041,"lat":50.63767,"country":"France","operator":"Cogent","stype":"Data Center"},{"id":"w75759038","name":"Cogent Montpellier","lon":3.86265,"lat":43.60091,"country":"France","operator":"Cogent","stype":"Data Center"},{"id":"n6175277339","name":"Cogent Nantes","lon":-1.55044,"lat":47.20264,"country":"France","stype":"Data Center","note":"Nantes"},{"id":"n6175333480","name":"Cogent Paris 1","lon":2.24163,"lat":48.90712,"country":"France","stype":"Data Center","note":"La Garenne Colombes"},{"id":"n6289632564","name":"Cogent Paris 2","lon":2.20695,"lat":48.7842,"country":"France","operator":"Cogentco","stype":"Data Center","note":"Vélizy-Villacoublay"},{"id":"n6175354710","name":"Cogent Poitiers","lon":0.34002,"lat":46.58842,"country":"France","stype":"Data Center","note":"Poitiers"},{"id":"w65043676","name":"Cogent Rouen","lon":1.07597,"lat":49.42907,"country":"France","operator":"Cogent","stype":"Data Center"},{"id":"w76296417","name":"Cogent Toulouse","lon":1.42255,"lat":43.62033,"country":"France","operator":"Cogent","stype":"Data Center"},{"id":"w843118512","name":"Cogent Tours","lon":0.68648,"lat":47.43232,"country":"France","operator":"Cogent","stype":"Data Center"},{"id":"n6121906640","name":"Colt Lyon","lon":4.86756,"lat":45.75884,"country":"France","stype":"Data Center"},{"id":"n6121873072","name":"Colt Paris 1","lon":2.39811,"lat":48.83523,"country":"France","stype":"Data Center"},{"id":"n6121864803","name":"Colt Paris 2","lon":2.32218,"lat":48.89727,"country":"France","stype":"Data Center","note":"Paris"},{"id":"w79145624","name":"Colt Paris 3","lon":2.19717,"lat":48.67475,"country":"France","operator":"Colt","stype":"Data Center","note":"Les Ulis"},{"id":"w1141021688","name":"Colt Paris 3","lon":2.19831,"lat":48.67524,"country":"France","operator":"Colt","stype":"Data Center","note":"Les Ulis"},{"id":"w80330028","name":"Comarch Data Center","lon":3.10361,"lat":50.61472,"country":"France","operator":"Comarch ICT","stype":"Data Center"},{"id":"n11691867437","name":"Crypteo","lon":2.05579,"lat":43.91191,"country":"France","operator":"Crypteo","stype":"Data Center"},{"id":"w88239907","name":"Data center","lon":4.03452,"lat":49.23368,"country":"France","operator":"Ikoula Net SAS","stype":"Data Center"},{"id":"n7902526435","name":"Data Center Bluecom","lon":-4.41547,"lat":48.4413,"country":"France","operator":"Bluecom","stype":"Data Center"},{"id":"w42016630","name":"Data4 Campus Paris Saclay","lon":2.22909,"lat":48.64975,"country":"France","operator":"Data4","stype":"Data Center"},{"id":"w320306631","name":"Data4 Marcoussis","lon":2.22804,"lat":48.65028,"country":"France","operator":"Data4","stype":"Data Center","note":"Marcoussis"},{"id":"w146090469","name":"DATA4 Paris Marcoussis PAR2","lon":2.20832,"lat":48.66429,"country":"France","operator":"Data4","stype":"Data Center"},{"id":"w117845346","name":"Datacenter","lon":2.05709,"lat":48.76548,"country":"France","operator":"SOCIETE TECHNOLOGIE EXPLOITATION INFORMATIQUE","stype":"Data Center"},{"id":"n7900883632","name":"Datacenter Aqua Ray","lon":2.3934,"lat":48.81994,"country":"France","operator":"Aqua Ray","stype":"Data Center","note":"Ivry-sur-Seine"},{"id":"w124592519","name":"Datacenter ArteOne","lon":1.50919,"lat":45.1576,"country":"France","operator":"Artefact","stype":"Data Center"},{"id":"w73003053","name":"Datacenter Atos","lon":2.39717,"lat":48.90954,"country":"France","operator":"Atos","stype":"Data Center"},{"id":"w116137046","name":"Datacenter Banque de France","lon":2.62457,"lat":48.84139,"country":"France","operator":"Banque de France","stype":"Data Center"},{"id":"w1320095589","name":"Datacenter Banque de France","lon":2.78832,"lat":48.83863,"country":"France","operator":"Banque de France","stype":"Data Center"},{"id":"w73137489","name":"Datacenter BNP","lon":1.22154,"lat":49.26522,"country":"France","operator":"BNP Paribas","stype":"Data Center"},{"id":"r11087732","name":"Datacenter BNP Paribas Marne Est 1","lon":2.8021,"lat":48.83581,"country":"France","operator":"BNP Paribas","stype":"Data Center"},{"id":"w1299040068","name":"Datacenter BNP Paribas Marne Est 2","lon":2.8033,"lat":48.83666,"country":"France","operator":"BNP Paribas","stype":"Data Center"},{"id":"n9002215626","name":"Datacenter Bouygues Télécom","lon":2.47095,"lat":48.72561,"country":"France","operator":"Bouygues Télécom","stype":"Data Center"},{"id":"w70206291","name":"Datacenter Bouygues Télécom","lon":2.24193,"lat":48.777,"country":"France","operator":"Bouygues Télécom","stype":"Data Center"},{"id":"w70456520","name":"Datacenter Bouygues Télécom","lon":2.22757,"lat":48.76921,"country":"France","operator":"Bouygues Télécom","stype":"Data Center"},{"id":"w113714402","name":"Datacenter Bouygues Télécom","lon":2.03577,"lat":48.79444,"country":"France","operator":"Bouygues Telecom","stype":"Data Center"},{"id":"w132582436","name":"Datacenter Bouygues Télécom","lon":2.04359,"lat":48.97325,"country":"France","operator":"Bouygues Telecom","stype":"Data Center"},{"id":"w83795984","name":"Datacenter Colt","lon":2.30286,"lat":48.81585,"country":"France","operator":"Colt","stype":"Data Center"},{"id":"w72996473","name":"Datacenter Completel","lon":2.39523,"lat":48.91015,"country":"France","operator":"Completel","stype":"Data Center"},{"id":"w937369189","name":"Datacenter Data17","lon":-0.52237,"lat":45.92747,"country":"France","operator":"Data17","stype":"Data Center"},{"id":"n8904810128","name":"Datacenter de l'Université de Strasbourg","lon":7.76336,"lat":48.58037,"country":"France","stype":"Data Center"},{"id":"w101166171","name":"Datacenter des Douanes","lon":2.06681,"lat":49.05416,"country":"France","operator":"Direction des douanes","stype":"Data Center"},{"id":"n8297551605","name":"Datacenter EDF","lon":2.34085,"lat":48.92035,"country":"France","operator":"EDF","stype":"Data Center"},{"id":"w226250681","name":"Datacenter EDF","lon":1.39823,"lat":49.012,"country":"France","operator":"EDF","stype":"Data Center"},{"id":"w103670545","name":"Datacenter France Travail","lon":3.90928,"lat":43.62627,"country":"France","operator":"France Travail","stype":"Data Center"},{"id":"w130810461","name":"Datacenter Groupama","lon":2.35685,"lat":47.05988,"country":"France","operator":"Groupama","stype":"Data Center"},{"id":"w249274111","name":"Datacenter Groupama","lon":-1.83689,"lat":48.06994,"country":"France","operator":"Groupama","stype":"Data Center"},{"id":"w63259490","name":"Datacenter Groupe Casino","lon":4.40043,"lat":45.44061,"country":"France","operator":"Groupe Casino","stype":"Data Center"},{"id":"w66911687","name":"Datacenter IBM","lon":3.14239,"lat":45.80772,"country":"France","operator":"IBM","stype":"Data Center"},{"id":"w91286607","name":"Datacenter IBM","lon":3.13776,"lat":45.83613,"country":"France","operator":"IBM","stype":"Data Center"},{"id":"w113167016","name":"Datacenter IBM","lon":2.69293,"lat":48.83258,"country":"France","operator":"IBM","stype":"Data Center"},{"id":"w125557451","name":"Datacenter IBM","lon":3.03076,"lat":50.56519,"country":"France","operator":"IBM","stype":"Data Center","note":"Seclin"},{"id":"r1604367","name":"Datacenter IBM","lon":2.67256,"lat":48.83086,"country":"France","operator":"IBM","stype":"Data Center"},{"id":"w82894448","name":"Datacenter IBM - Grabels","lon":3.82989,"lat":43.64269,"country":"France","operator":"IBM","stype":"Data Center"},{"id":"w66670655","name":"Datacenter IBO","lon":3.13083,"lat":45.7841,"country":"France","operator":"IBO","stype":"Data Center"},{"id":"w700171365","name":"Datacenter Marilyn","lon":2.58799,"lat":48.83503,"country":"France","stype":"Data Center","note":"Champs-sur-Marne"},{"id":"n12097993555","name":"Datacenter Martha","lon":5.34657,"lat":43.33849,"country":"France","stype":"Data Center"},{"id":"n9045173270","name":"Datacenter MGEN","lon":6.13029,"lat":48.65323,"country":"France","operator":"MGEN","stype":"Data Center"},{"id":"w89056684","name":"Datacenter Mutualisé Lorrain","lon":6.15056,"lat":48.65597,"country":"France","operator":"CNRS","stype":"Data Center"},{"id":"w138943505","name":"Datacenter Orange","lon":2.2186,"lat":48.78658,"country":"France","operator":"Orange","stype":"Data Center"},{"id":"n7902351616","name":"Datacenter Orange Archives","lon":2.35839,"lat":48.86281,"country":"France","operator":"Orange","stype":"Data Center"},{"id":"w115424116","name":"Datacenter Oxya","lon":2.58733,"lat":48.82926,"country":"France","operator":"Oxya","stype":"Data Center"},{"id":"n8297362166","name":"Datacenter RTE","lon":2.33994,"lat":48.91962,"country":"France","operator":"RTE","stype":"Data Center"},{"id":"n8670043375","name":"Datacenter RTE","lon":2.05002,"lat":48.792,"country":"France","operator":"RTE","stype":"Data Center"},{"id":"n8670065237","name":"Datacenter RTE","lon":4.83222,"lat":45.74048,"country":"France","operator":"RTE","stype":"Data Center"},{"id":"w113457880","name":"Datacenter Sirius","lon":2.55337,"lat":48.62137,"country":"France","operator":"Natixis","stype":"Data Center"},{"id":"w37697561","name":"Datacenter SNCF RESARAIL","lon":3.08838,"lat":50.62286,"country":"France","operator":"SNCF","stype":"Data Center"},{"id":"w62777045","name":"Datacenter Société Generale","lon":2.49875,"lat":48.64634,"country":"France","operator":"Société Generale","stype":"Data Center"},{"id":"n12154384214","name":"Datacenter Sud","lon":5.41194,"lat":43.33592,"country":"France","operator":"Aix-Marseille Université","stype":"Data Center"},{"id":"n7902527604","name":"Datacenter Thales Nungesser","lon":1.97529,"lat":48.79094,"country":"France","operator":"THALES","stype":"Data Center"},{"id":"w63996094","name":"Datacenter Vega","lon":2.80403,"lat":48.84473,"country":"France","operator":"Natixis","stype":"Data Center"},{"id":"w48199846","name":"Datadock","lon":7.78248,"lat":48.56866,"country":"France","stype":"Data Center"},{"id":"n10089225111","name":"Datagrex","lon":0.18713,"lat":48.05386,"country":"France","stype":"Data Center","note":"Saint-Saturnin"},{"id":"w91290220","name":"DC Free","lon":3.13704,"lat":45.83322,"country":"France","operator":"Illiad","stype":"Data Center"},{"id":"n8074063731","name":"dc2scale Vélizy","lon":2.20809,"lat":48.78379,"country":"France","operator":"dc2scale","stype":"Data Center","note":"Vélizy-Villacoublay"},{"id":"w150382252","name":"DC2SCALE Vélizy Latécoère","lon":2.20916,"lat":48.78426,"country":"France","operator":"dc2scale","stype":"Data Center"},{"id":"w1061336199","name":"DC7 - Euclyde Datacenters","lon":7.7371,"lat":48.52015,"country":"France","operator":"Euclyde Datacenters","stype":"Data Center"},{"id":"w68940404","name":"Digital Realty MRS1","lon":5.37391,"lat":43.31102,"country":"France","operator":"Digital Realty","stype":"Data Center"},{"id":"w159862898","name":"Digital Realty MRS2","lon":5.34712,"lat":43.33864,"country":"France","operator":"Digital Realty","stype":"Data Center","note":"Marseille"},{"id":"w159863825","name":"Digital Realty MRS3","lon":5.34646,"lat":43.33865,"country":"France","operator":"Digital Realty","stype":"Data Center"},{"id":"w1117375128","name":"Digital Realty MRS4","lon":5.34674,"lat":43.33968,"country":"France","operator":"Digital Realty","stype":"Data Center"},{"id":"w846779443","name":"Digital Realty PAR12","lon":2.7251,"lat":48.8244,"country":"France","operator":"Digital Realty","stype":"Data Center","note":"Ferrières-en-Brie"},{"id":"w72996440","name":"Digital Realty Paris PAR5","lon":2.37105,"lat":48.90427,"country":"France","operator":"Digital Realty","stype":"Data Center","note":"Aubervilliers"},{"id":"r1190245","name":"Digital Realty Paris PAR6","lon":2.40482,"lat":48.81703,"country":"France","operator":"Digital Realty","stype":"Data Center"},{"id":"n9969529152","name":"DTC","lon":0.83762,"lat":44.19902,"country":"France","stype":"Data Center"},{"id":"n10241762412","name":"DTiX","lon":5.07767,"lat":47.34005,"country":"France","stype":"Data Center","note":"Saint-Apollinaire"},{"id":"n12578588217","name":"Eclairion","lon":2.19762,"lat":48.59765,"country":"France","stype":"Data Center"},{"id":"w359652564","name":"Ecocenter","lon":3.11509,"lat":45.83124,"country":"France","operator":"Nexeren","stype":"Data Center"},{"id":"n6212483563","name":"ELB Group - DATACENTER LYON 3","lon":4.8718,"lat":45.77198,"country":"France","stype":"Data Center"},{"id":"w920174789","name":"Equinix","lon":-0.61223,"lat":44.89613,"country":"France","operator":"Equinix","stype":"Data Center"},{"id":"w1121454054","name":"Equinix PA10","lon":2.34895,"lat":48.92756,"country":"France","operator":"Equinix","stype":"Data Center","note":"Saint-Denis"},{"id":"w846772885","name":"Equinix PA13X","lon":2.21659,"lat":48.78911,"country":"France","operator":"Equinix","stype":"Data Center"},{"id":"w463443856","name":"Equinix PA2","lon":2.35165,"lat":48.92759,"country":"France","operator":"Equinix","stype":"Data Center","note":"Saint-Denis"},{"id":"w42742505","name":"Equinix PA3","lon":2.35035,"lat":48.92714,"country":"France","operator":"Equinix","stype":"Data Center","note":"Saint-Denis"},{"id":"w73120395","name":"Equinix PA4","lon":2.42203,"lat":48.90033,"country":"France","operator":"Equinix","stype":"Data Center","note":"Pantin"},{"id":"w73007043","name":"Equinix PA5","lon":2.36979,"lat":48.90529,"country":"France","operator":"Equinix","stype":"Data Center","note":"Aubervilliers"},{"id":"w73008524","name":"Equinix PA6","lon":2.36823,"lat":48.91019,"country":"France","operator":"Equinix","stype":"Data Center"},{"id":"n6174794770","name":"Equinix PA7","lon":2.36953,"lat":48.90224,"country":"France","operator":"Equinix","stype":"Data Center","note":"Aubervilliers"},{"id":"r1227851","name":"Equinix PA7","lon":2.25942,"lat":48.90497,"country":"France","operator":"Equinix","stype":"Data Center","note":"Courbevoie"},{"id":"w847461128","name":"Equinix PA8X","lon":2.42199,"lat":48.9007,"country":"France","operator":"Equinix","stype":"Data Center","note":"Pantin"},{"id":"w1121454055","name":"Equinix PA9X","lon":2.34898,"lat":48.92685,"country":"France","operator":"Equinix","stype":"Data Center","note":"Saint-Denis"},{"id":"n6213121089","name":"Etix Vendée #2","lon":-1.74791,"lat":46.5155,"country":"France","stype":"Data Center","note":"Olonne-sur-Mer"},{"id":"r1074421","name":"Euclyde DC1","lon":7.07554,"lat":43.60461,"country":"France","operator":"Euclyde","stype":"Data Center"},{"id":"w843508896","name":"Euclyde DC3","lon":7.03855,"lat":43.6244,"country":"France","operator":"Euclyde","stype":"Data Center"},{"id":"w84607738","name":"Euclyde DC5","lon":4.87154,"lat":45.77248,"country":"France","operator":"Euclyde","stype":"Data Center"},{"id":"w116116518","name":"Euclyde DC6","lon":2.63063,"lat":48.83921,"country":"France","operator":"Euclyde","stype":"Data Center"},{"id":"n13006633477","name":"Euro-Information EIP (Data Center)","lon":5.10557,"lat":47.33293,"country":"France","operator":"Euro Information","stype":"Data Center"},{"id":"w113174337","name":"Euroclear","lon":2.72973,"lat":48.83205,"country":"France","operator":"Euroclear","stype":"Data Center"},{"id":"w128632388","name":"Extension centre de calcul IN2P3","lon":4.86607,"lat":45.78269,"country":"France","operator":"IN2P3","stype":"Data Center"},{"id":"w664793692","name":"Fil d'Ariane","lon":2.18253,"lat":43.91932,"country":"France","operator":"CELESTE","stype":"Data Center","note":"Albi"},{"id":"n8744063082","name":"France Travail datacenter Orléans","lon":1.85215,"lat":47.89304,"country":"France","operator":"France Travail DSI","stype":"Data Center"},{"id":"r9701471","name":"Free Pro - Datacenter Limonest (LYO02 - DCForData)","lon":4.77215,"lat":45.80668,"country":"France","operator":"Free Pro (Ex. Jaguar Network - DCForData)","stype":"Data Center"},{"id":"w69633445","name":"Free Pro - Datacenter Marseille (MAR02)","lon":5.33793,"lat":43.3612,"country":"France","operator":"Free Pro (Ex. Jaguar Network - DCForData)","stype":"Data Center"},{"id":"w664619554","name":"Free Pro - Datacenter Rock (LYO03)","lon":4.88987,"lat":45.73858,"country":"France","operator":"Free Pro (Ex. Jaguar Network - DCforDATA)","stype":"Data Center"},{"id":"w76329433","name":"Fullsave Toulouse","lon":1.42135,"lat":43.61989,"country":"France","stype":"Data Center","note":"Toulouse"},{"id":"w74475616","name":"Global Switch","lon":2.29532,"lat":48.90019,"country":"France","operator":"Global Switch","stype":"Data Center"},{"id":"w50210667","name":"Green DataCenter Eolas","lon":5.71513,"lat":45.1685,"country":"France","operator":"Orange Business","stype":"Data Center","note":"Grenoble"},{"id":"w137139149","name":"Greenfield","lon":1.43821,"lat":48.45092,"country":"France","operator":"Crédit Agricole","stype":"Data Center"},{"id":"w468717472","name":"Greenfield","lon":1.32684,"lat":48.47056,"country":"France","operator":"Crédit Agricole","stype":"Data Center"},{"id":"w69382833","name":"Groupe ADISTA","lon":0.69542,"lat":47.43602,"country":"France","operator":"ADISTA","stype":"Data Center","note":"Tours"},{"id":"w139706219","name":"Interoute Bordeaux","lon":-0.53743,"lat":44.78098,"country":"France","operator":"Interoute","stype":"Data Center"},{"id":"w97768560","name":"Interoute Marseille","lon":5.36785,"lat":43.34279,"country":"France","operator":"Interoute","stype":"Data Center"},{"id":"w45423103","name":"Interoute Strasbourg","lon":7.79512,"lat":48.59327,"country":"France","operator":"Interoute","stype":"Data Center"},{"id":"w73005728","name":"Interxion PAR2 - Bâtiment 501","lon":2.36954,"lat":48.90721,"country":"France","operator":"Digital Realty","stype":"Data Center","note":"Aubervilliers"},{"id":"w63979423","name":"Interxion PAR3","lon":2.36239,"lat":48.91473,"country":"France","operator":"Digital Realty","stype":"Data Center","note":"Saint-Denis"},{"id":"w700504282","name":"Interxion PAR4","lon":2.17506,"lat":48.89395,"country":"France","operator":"Interxion","stype":"Data Center","note":"Nanterre"},{"id":"w63983178","name":"Interxion PAR5","lon":2.36238,"lat":48.91418,"country":"France","operator":"Digital Realty","stype":"Data Center","note":"Saint-Denis"},{"id":"n6102606448","name":"Interxion PAR6","lon":2.40304,"lat":48.81521,"country":"France","operator":"Digital Realty","stype":"Data Center","note":"Ivry-sur-Seine"},{"id":"w261420854","name":"Interxion PAR7","lon":2.40215,"lat":48.92542,"country":"France","operator":"Interxion","stype":"Data Center"},{"id":"n6289682223","name":"KHEOPS Organisation Plessis-Robinson","lon":2.23798,"lat":48.7742,"country":"France","stype":"Data Center","note":"Le Plessis-Robinson"},{"id":"n6289605233","name":"KHEOPS Organisation Vélizy-Villacoublay","lon":2.2148,"lat":48.77854,"country":"France","stype":"Data Center","note":"Vélizy-Villacoublay"},{"id":"w153973376","name":"La Pointe 1","lon":3.02838,"lat":50.56681,"country":"France","operator":"Worldline","stype":"Data Center","note":"Noyelles-lès-Seclin"},{"id":"n6212420800","name":"LASOTEL PIXEL69","lon":4.89966,"lat":45.75741,"country":"France","stype":"Data Center"},{"id":"w700652111","name":"Le Prologue","lon":2.25922,"lat":48.90428,"country":"France","operator":"SFR","stype":"Data Center"},{"id":"n6289564874","name":"Level (3) Le Capitole Nanterre","lon":2.21424,"lat":48.88783,"country":"France","operator":"Lumen Technologies","stype":"Data Center","note":"Nanterre"},{"id":"n13743687202","name":"LIFO","lon":1.93966,"lat":47.84551,"country":"France","operator":"LIFO","stype":"Data Center"},{"id":"n8930909348","name":"Lille Boitelle","lon":3.07785,"lat":50.6273,"country":"France","operator":"Orange","stype":"Data Center"},{"id":"w757483478","name":"Lille Etix #1","lon":3.15792,"lat":50.69905,"country":"France","stype":"Data Center","note":"Roubaix"},{"id":"w140910921","name":"Lumen","lon":2.51929,"lat":48.98237,"country":"France","operator":"Lumen Technologies","stype":"Data Center"},{"id":"n8930909347","name":"Lyon Sévigné","lon":4.84389,"lat":45.75845,"country":"France","operator":"Orange","stype":"Data Center"},{"id":"n3979838931","name":"LyonIX 1 IN2P3","lon":4.86575,"lat":45.78262,"country":"France","stype":"Data Center"},{"id":"w68937644","name":"Marseille Nedelec","lon":5.37722,"lat":43.30293,"country":"France","operator":"Orange","stype":"Data Center"},{"id":"w68947782","name":"Marseille St-Mauront","lon":5.37405,"lat":43.31515,"country":"France","operator":"Orange","stype":"Data Center"},{"id":"n11942572541","name":"Microsoft","lon":7.52486,"lat":47.7523,"country":"France","operator":"Microsoft","stype":"Data Center"},{"id":"w1361721862","name":"Nation Data Center Rennes","lon":-1.53607,"lat":48.11252,"country":"France","operator":"Nation Data Center","stype":"Data Center"},{"id":"w481746975","name":"Nexeren","lon":4.87898,"lat":45.90382,"country":"France","operator":"Nexeren","stype":"Data Center"},{"id":"w62840519","name":"O2Switch DC2","lon":3.13474,"lat":45.75664,"country":"France","operator":"O2Switch","stype":"Data Center"},{"id":"n13357674614","name":"Okantis","lon":0.32549,"lat":46.6071,"country":"France","stype":"Data Center"},{"id":"w76727775","name":"OPCORE DC1","lon":2.22367,"lat":48.92538,"country":"France","operator":"OPCORE","stype":"Data Center"},{"id":"w139560714","name":"OPCORE DC2","lon":2.41182,"lat":48.79475,"country":"France","operator":"OPCORE","stype":"Data Center","note":"Vitry-sur-Seine"},{"id":"w139560858","name":"OPCORE DC3","lon":2.37927,"lat":48.77477,"country":"France","operator":"OPCORE","stype":"Data Center"},{"id":"w102449117","name":"OPCORE DC5","lon":2.1379,"lat":49.05377,"country":"France","operator":"OPCORE","stype":"Data Center"},{"id":"w102446449","name":"OPCORE DC6-2","lon":2.12014,"lat":49.03015,"country":"France","operator":"OPCORE","stype":"Data Center"},{"id":"w102465235","name":"OPCORE DC6-3","lon":2.12385,"lat":49.02894,"country":"France","operator":"OPCORE","stype":"Data Center"},{"id":"w102453250","name":"OPCORE DC6-5","lon":2.12605,"lat":49.02649,"country":"France","operator":"OPCORE","stype":"Data Center"},{"id":"w102453433","name":"OPCORE DC6-6","lon":2.12519,"lat":49.02874,"country":"France","operator":"OPCORE","stype":"Data Center"},{"id":"w72995274","name":"Orange - Aubervilliers","lon":2.39463,"lat":48.90932,"country":"France","operator":"Orange","stype":"Data Center"},{"id":"w81617496","name":"Orange Eastview","lon":2.41617,"lat":48.86339,"country":"France","stype":"Data Center","note":"Bagnolet"},{"id":"w62340941","name":"Orange Lyon Lumière - Centrale","lon":4.86372,"lat":45.7551,"country":"France","stype":"Data Center"},{"id":"w74704589","name":"Oscar","lon":1.37048,"lat":43.59342,"country":"France","operator":"Air France","stype":"Data Center"},{"id":"w551480870","name":"OVHcloud Gravelines","lon":2.15478,"lat":51.01672,"country":"France","operator":"OVHcloud","stype":"Data Center"},{"id":"w551480895","name":"OVHcloud Gravelines","lon":2.15523,"lat":51.01665,"country":"France","operator":"OVHcloud","stype":"Data Center","note":"Gravelines"},{"id":"n6222911368","name":"OVHcloud Paris","lon":2.37647,"lat":48.88831,"country":"France","stype":"Data Center","note":"Paris"},{"id":"w38354559","name":"OVHcloud Roubaix - RBX1","lon":3.20012,"lat":50.6927,"country":"France","stype":"Data Center"},{"id":"r8812014","name":"OVHcloud Roubaix - RBX2","lon":3.20157,"lat":50.69145,"country":"France","stype":"Data Center"},{"id":"w176779630","name":"OVHcloud Roubaix - RBX3","lon":3.19919,"lat":50.69289,"country":"France","stype":"Data Center"},{"id":"w234729371","name":"OVHcloud Roubaix - RBX4","lon":3.20082,"lat":50.69118,"country":"France","stype":"Data Center"},{"id":"w80148463","name":"OVHcloud Roubaix - RBX5","lon":3.19933,"lat":50.69255,"country":"France","stype":"Data Center"},{"id":"w80144821","name":"OVHcloud Roubaix - RBX6","lon":3.19968,"lat":50.69171,"country":"France","stype":"Data Center"},{"id":"w80150630","name":"OVHcloud Roubaix - RBX7","lon":3.19794,"lat":50.69174,"country":"France","stype":"Data Center"},{"id":"w875244715","name":"OVHcloud Strasbourg - SBG-3","lon":7.79751,"lat":48.58606,"country":"France","operator":"OVHcloud","stype":"Data Center","note":"Strasbourg"},{"id":"w1257814939","name":"OVHcloud Strasbourg - SBG-5","lon":7.79753,"lat":48.58656,"country":"France","operator":"OVHcloud","stype":"Data Center","note":"Strasbourg"},{"id":"w81727062","name":"Oxya Datacenter","lon":3.02229,"lat":50.61679,"country":"France","stype":"Data Center"},{"id":"w1030533210","name":"PAR8","lon":2.39799,"lat":48.92753,"country":"France","operator":"Interxion","stype":"Data Center"},{"id":"w1084581417","name":"PAR9","lon":2.39873,"lat":48.92708,"country":"France","operator":"Interxion","stype":"Data Center"},{"id":"w902536378","name":"Paris Digital Park","lon":2.3988,"lat":48.92749,"country":"France","stype":"Data Center"},{"id":"w80158243","name":"Paris St Amand","lon":2.30727,"lat":48.83511,"country":"France","operator":"Orange","stype":"Data Center"},{"id":"n12546664021","name":"Phocea DC","lon":5.37477,"lat":43.31245,"country":"France","operator":"Phocea DC","stype":"Data Center"},{"id":"w236976420","name":"Proginov","lon":-1.55547,"lat":47.08921,"country":"France","stype":"Data Center","note":"La Chevrolière"},{"id":"n6289587203","name":"Prosodie Boulogne","lon":2.23513,"lat":48.83611,"country":"France","stype":"Data Center","note":"Boulogne-Billancourt"},{"id":"w43013791","name":"Quiri","lon":7.74423,"lat":48.60047,"country":"France","operator":"Cogent","stype":"Data Center"},{"id":"w104544854","name":"Salle Serveurs CCCM","lon":6.39659,"lat":45.25528,"country":"France","stype":"Data Center"},{"id":"n7902551102","name":"Salle technique Euronews","lon":4.81565,"lat":45.7344,"country":"France","operator":"Euronews","stype":"Data Center"},